City_ID,City,Country,Date,Lat,Lng,Max Temp,Humidity,Cloudiness,Wind Speed,Current Description,Rain inches (last 3 hrs),Snow inches (last 3 hrs)
0,Westport,US,2020-04-18 19:42:22,41.14,-73.36,44.6,70,90,14.99,overcast clouds,0.0,0.0
1,Omboue,GA,2020-04-18 19:42:23,-1.57,9.26,79.72,89,96,5.73,light rain,0.34,0.0
2,Margate,GB,2020-04-18 19:40:16,51.38,1.39,48.99,91,35,14.7,scattered clouds,0.0,0.0
3,Kapaa,US,2020-04-18 19:42:23,22.08,-159.32,78.8,65,1,11.41,clear sky,0.0,0.0
4,Duluth,US,2020-04-18 19:37:56,46.78,-92.11,55.4,35,75,11.41,broken clouds,0.0,0.0
5,Rikitea,PF,2020-04-18 19:42:24,-23.12,-134.97,77.11,70,26,6.31,scattered clouds,0.0,0.0
6,Port Elizabeth,ZA,2020-04-18 19:42:24,-33.92,25.57,66.2,93,0,4.7,clear sky,0.0,0.0
7,Dikson,RU,2020-04-18 19:40:26,73.51,80.55,35.44,90,100,18.92,overcast clouds,0.0,0.0
8,Atar,MR,2020-04-18 19:42:25,20.52,-13.05,74.34,19,0,8.01,clear sky,0.0,0.0
9,East London,ZA,2020-04-18 19:42:25,-33.02,27.91,71.13,65,0,17.9,clear sky,0.0,0.0
10,Bertoua,CM,2020-04-18 19:42:25,4.58,13.68,72.36,74,49,4.27,light rain,0.78,0.0
11,Avarua,CK,2020-04-18 19:42:25,-21.21,-159.78,80.6,74,54,5.82,broken clouds,0.0,0.0
12,Baculin,PH,2020-04-18 19:42:26,7.45,126.58,77.67,80,88,6.67,light rain,1.53,0.0
13,Sai Buri,TH,2020-04-18 19:42:26,6.7,101.62,79.86,83,100,6.17,overcast clouds,0.0,0.0
14,Punta Arenas,CL,2020-04-18 19:38:50,-53.15,-70.92,55.4,43,75,17.22,broken clouds,0.0,0.0
15,Cockburn Town,TC,2020-04-18 19:38:33,21.46,-71.14,79.09,78,77,13.4,broken clouds,0.0,0.0
16,Albany,US,2020-04-18 19:38:42,42.6,-73.97,44.01,68,63,3.0,light rain,0.37,0.0
17,Saint-Philippe,RE,2020-04-18 19:42:27,-21.36,55.77,77.0,78,20,17.22,few clouds,0.0,0.0
18,Te Anau,NZ,2020-04-18 19:42:27,-45.42,167.72,46.85,70,93,8.72,light rain,0.45,0.0
19,Ponta Do Sol,PT,2020-04-18 19:42:27,32.67,-17.1,61.0,58,11,13.0,few clouds,0.0,0.0
20,Coquimbo,CL,2020-04-18 19:42:27,-29.95,-71.34,64.4,72,40,10.29,scattered clouds,0.0,0.0
21,Gorontalo,ID,2020-04-18 19:42:28,0.54,123.06,75.94,88,40,2.57,light rain,0.25,0.0
22,Dakar,SN,2020-04-18 19:42:23,14.69,-17.44,71.6,73,2,18.34,clear sky,0.0,0.0
23,Vardo,NO,2020-04-18 19:40:30,70.37,31.11,36.07,83,97,20.33,overcast clouds,0.0,0.0
24,Calawag,PH,2020-04-18 19:42:28,10.67,119.57,80.73,81,3,7.61,light rain,0.57,0.0
25,Marfino,RU,2020-04-18 19:42:29,55.7,37.38,43.0,80,74,11.18,broken clouds,0.0,0.0
26,Faya,SA,2020-04-18 19:42:29,18.39,42.45,66.2,82,100,6.93,overcast clouds,0.0,0.0
27,Richards Bay,ZA,2020-04-18 19:42:29,-28.78,32.04,72.68,79,40,8.9,scattered clouds,0.0,0.0
28,San Quintin,MX,2020-04-18 19:40:43,30.48,-115.95,64.15,57,0,17.96,clear sky,0.0,0.0
29,Hermanus,ZA,2020-04-18 19:42:29,-34.42,19.23,69.01,45,65,1.86,broken clouds,0.0,0.0
30,Hofn,IS,2020-04-18 19:40:14,64.25,-15.21,45.36,87,100,17.56,light rain,0.68,0.0
31,Emmauss,RU,2020-04-18 19:42:30,56.78,36.12,34.27,87,96,5.57,overcast clouds,0.0,0.0
32,Castro,BR,2020-04-18 19:42:30,-24.79,-50.01,61.27,58,43,3.71,scattered clouds,0.0,0.0
33,Hasaki,JP,2020-04-18 19:42:30,35.73,140.83,52.0,87,75,4.7,broken clouds,0.0,0.0
34,Vaini,TO,2020-04-18 19:42:30,-21.2,-175.2,77.0,83,40,10.29,scattered clouds,0.0,0.0
35,Kovdor,RU,2020-04-18 19:42:31,67.57,30.48,26.33,96,24,4.25,few clouds,0.0,0.0
36,Barcelos,PT,2020-04-18 19:42:31,41.54,-8.62,60.01,87,40,8.05,scattered clouds,0.0,0.0
37,Bethel,US,2020-04-18 19:40:27,41.37,-73.41,42.01,75,90,10.29,overcast clouds,0.0,0.0
38,Hithadhoo,MV,2020-04-18 19:42:31,-0.6,73.08,83.77,75,99,11.65,overcast clouds,0.0,0.0
39,Saint-Joseph,RE,2020-04-18 19:40:34,-21.37,55.62,77.0,83,40,11.41,scattered clouds,0.0,0.0
40,Esperance,AU,2020-04-18 19:40:34,-33.87,121.9,59.0,100,75,12.75,broken clouds,0.0,0.0
41,Ribeira Grande,PT,2020-04-18 19:40:26,38.52,-28.7,64.4,88,75,14.99,light intensity shower rain,0.0,0.0
42,Saskylakh,RU,2020-04-18 19:40:29,71.92,114.08,8.49,79,0,5.37,clear sky,0.0,0.0
43,Aklavik,CA,2020-04-18 19:41:08,68.22,-135.01,23.0,73,90,14.99,overcast clouds,0.0,0.0
44,Vestmannaeyjar,IS,2020-04-18 19:42:33,63.44,-20.27,44.6,100,90,12.75,moderate rain,0.0,0.0
45,Yuncheng,CN,2020-04-18 19:42:33,35.02,110.99,47.41,70,77,2.46,broken clouds,0.0,0.0
46,Ushuaia,AR,2020-04-18 19:42:34,-54.8,-68.3,50.0,64,75,18.34,shower rain,0.0,0.0
47,Busselton,AU,2020-04-18 19:42:34,-33.65,115.33,62.01,77,100,24.32,moderate rain,3.78,0.0
48,Nabire,ID,2020-04-18 19:42:34,-3.37,135.48,76.96,87,100,3.98,moderate rain,3.09,0.0
49,Tuktoyaktuk,CA,2020-04-18 19:40:35,69.45,-133.04,8.6,78,40,3.36,scattered clouds,0.0,0.0
50,Lata,PT,2020-04-18 19:41:16,40.16,-8.33,60.01,80,29,1.99,scattered clouds,0.0,0.0
51,Asyut,EG,2020-04-18 19:37:48,27.18,31.18,73.4,43,0,17.22,clear sky,0.0,0.0
52,Sioux Lookout,CA,2020-04-18 19:42:35,50.1,-91.92,41.0,56,90,11.41,light intensity shower rain,0.0,0.0
53,Port Lincoln,AU,2020-04-18 19:42:35,-34.73,135.87,58.19,75,33,8.25,scattered clouds,0.0,0.0
54,Port Macquarie,AU,2020-04-18 19:42:35,-31.43,152.92,54.0,95,58,4.45,broken clouds,0.0,0.0
55,Thompson,CA,2020-04-18 19:42:36,55.74,-97.86,14.0,51,40,11.41,scattered clouds,0.0,0.0
56,Coahuayana,MX,2020-04-18 19:42:36,18.73,-103.68,86.0,40,40,7.85,scattered clouds,0.0,0.0
57,Hilo,US,2020-04-18 19:42:36,19.73,-155.09,80.6,44,1,3.36,clear sky,0.0,0.0
58,Santa Maria,BR,2020-04-18 19:42:36,-29.68,-53.81,69.48,63,0,4.94,clear sky,0.0,0.0
59,Assiniboia,CA,2020-04-18 19:42:37,49.63,-105.98,41.31,44,66,17.83,broken clouds,0.0,0.0
60,Northam,GB,2020-04-18 19:42:37,51.03,-4.22,54.0,90,43,3.0,scattered clouds,0.0,0.0
61,Kaitangata,NZ,2020-04-18 19:42:37,-46.28,169.85,48.99,89,98,6.91,overcast clouds,0.0,0.0
62,Saint George,US,2020-04-18 19:42:37,37.1,-113.58,69.01,34,1,13.4,clear sky,0.0,0.0
63,Galveston,US,2020-04-18 19:42:37,29.37,-94.97,72.0,88,90,13.87,mist,0.0,0.0
64,Adrar,MR,2020-04-18 19:42:38,20.5,-10.07,74.03,40,100,9.93,light rain,0.48,0.0
65,Cape Town,ZA,2020-04-18 19:40:17,-33.93,18.42,66.99,72,83,3.36,broken clouds,0.0,0.0
66,Komsomolskiy,UZ,2020-04-18 19:42:38,40.43,71.72,59.0,54,4,6.93,clear sky,0.0,0.0
67,Camopi,GF,2020-04-18 19:42:38,3.17,-52.32,80.13,88,47,2.21,light rain,2.5,0.0
68,Encruzilhada Do Sul,BR,2020-04-18 19:42:39,-30.54,-52.52,64.11,69,73,6.62,broken clouds,0.0,0.0
69,Grand Gaube,MU,2020-04-18 19:42:39,-20.01,57.66,79.0,74,40,12.75,scattered clouds,0.0,0.0
70,Aleksandrov Gay,RU,2020-04-18 19:42:39,50.15,48.57,43.77,75,84,4.54,broken clouds,0.0,0.0
71,Tura,IN,2020-04-18 19:42:40,25.52,90.22,66.11,75,10,2.73,light rain,0.2,0.0
72,Saldanha,ZA,2020-04-18 19:42:40,-33.01,17.94,68.0,40,96,5.82,overcast clouds,0.0,0.0
73,Caravelas,BR,2020-04-18 19:41:51,-17.71,-39.25,76.51,78,94,19.64,overcast clouds,0.0,0.0
74,Vila Velha,BR,2020-04-18 19:41:51,-20.33,-40.29,77.0,69,20,13.87,few clouds,0.0,0.0
75,Nanortalik,GL,2020-04-18 19:40:18,60.14,-45.24,29.88,90,62,3.24,broken clouds,0.0,0.0
76,Port Alfred,ZA,2020-04-18 19:42:41,-33.59,26.89,66.0,95,0,4.0,clear sky,0.0,0.0
77,Brownsville,US,2020-04-18 19:37:48,25.9,-97.5,89.6,55,75,16.11,broken clouds,0.0,0.0
78,Gat,IL,2020-04-18 19:42:41,31.61,34.76,66.99,16,0,7.49,clear sky,0.0,0.0
79,Mezhova,UA,2020-04-18 19:42:41,48.25,36.73,42.55,57,99,2.89,overcast clouds,0.0,0.0
80,Barrow,US,2020-04-18 19:42:42,71.29,-156.79,-2.2,77,1,10.29,clear sky,0.0,0.0
81,Bathsheba,BB,2020-04-18 19:42:42,13.22,-59.52,86.0,58,40,20.8,scattered clouds,0.0,0.0
82,Tsiroanomandidy,MG,2020-04-18 19:42:42,-18.77,46.03,65.43,64,27,3.18,scattered clouds,0.0,0.0
83,Khatanga,RU,2020-04-18 19:40:48,71.97,102.5,9.54,93,0,5.06,clear sky,0.0,0.0
84,Flinders,AU,2020-04-18 19:42:42,-34.58,150.86,53.01,84,89,5.57,light rain,0.62,0.0
85,Madang,PG,2020-04-18 19:42:43,-5.22,145.8,78.31,81,100,5.3,light rain,0.93,0.0
86,Chapais,CA,2020-04-18 19:40:18,49.78,-74.85,39.2,38,1,16.11,clear sky,0.0,0.0
87,Puerto Ayora,EC,2020-04-18 19:42:43,-0.74,-90.35,86.0,70,75,13.87,shower rain,0.0,0.0
88,Qaanaaq,GL,2020-04-18 19:42:43,77.48,-69.36,20.75,87,100,9.42,overcast clouds,0.0,0.0
89,Atuona,PF,2020-04-18 19:42:44,-9.8,-139.03,82.47,79,89,18.37,light rain,0.62,0.0
90,Henties Bay,NA,2020-04-18 19:40:32,-22.12,14.28,57.0,94,0,1.99,clear sky,0.0,0.0
91,Wanaka,NZ,2020-04-18 19:39:54,-44.7,169.15,43.0,84,86,3.0,light rain,0.17,0.0
92,Jamestown,US,2020-04-18 19:42:20,42.1,-79.24,44.01,48,75,13.87,broken clouds,0.0,0.0
93,Ambam,CM,2020-04-18 19:42:45,2.38,11.28,70.92,82,100,2.53,light rain,0.56,0.0
94,Lagoa,PT,2020-04-18 19:42:45,39.05,-27.98,62.42,90,100,22.53,light rain,0.82,0.0
95,Chuy,UY,2020-04-18 19:42:45,-33.7,-53.46,66.63,82,18,7.23,few clouds,0.0,0.0
96,Alyangula,AU,2020-04-18 19:42:45,-13.85,136.42,71.6,94,22,4.79,few clouds,0.0,0.0
97,Kautokeino,NO,2020-04-18 19:42:46,69.01,23.04,32.59,82,92,7.58,overcast clouds,0.0,0.0
98,Masumbwe,TZ,2020-04-18 19:42:46,-3.63,32.18,65.5,68,100,2.08,moderate rain,4.41,0.0
99,Puerto Carreno,CO,2020-04-18 19:40:03,6.19,-67.49,75.2,88,40,5.82,thunderstorm with light rain,0.0,0.0
100,Yenagoa,NG,2020-04-18 19:42:06,4.92,6.26,78.85,89,82,3.96,light rain,0.8,0.0
101,Reo,BF,2020-04-18 19:42:47,12.32,-2.47,92.55,26,61,6.15,broken clouds,0.0,0.0
102,Ambilobe,MG,2020-04-18 19:40:21,-13.2,49.05,73.45,82,47,5.32,scattered clouds,0.0,0.0
103,Maumere,ID,2020-04-18 19:42:47,-8.62,122.21,80.15,76,70,3.83,broken clouds,0.0,0.0
104,Longyearbyen,SJ,2020-04-18 19:42:47,78.22,15.64,30.2,80,20,5.82,few clouds,0.0,0.0
105,Hamilton,US,2020-04-18 19:42:48,39.18,-84.53,55.99,47,75,6.93,broken clouds,0.0,0.0
106,Santa Isabel,BR,2020-04-18 19:42:48,-23.32,-46.22,75.2,64,40,11.41,scattered clouds,0.0,0.0
107,Ketchikan,US,2020-04-18 19:41:58,55.34,-131.65,51.8,71,1,16.11,clear sky,0.0,0.0
108,Ilulissat,GL,2020-04-18 19:40:36,69.22,-51.1,23.83,95,100,4.43,light snow,0.0,0.23
109,Coos Bay,US,2020-04-18 19:42:14,43.37,-124.22,62.01,81,90,9.17,overcast clouds,0.0,0.0
110,Moron,AR,2020-04-18 19:42:49,-34.65,-58.62,78.01,48,0,6.78,clear sky,0.0,0.0
111,Iqaluit,CA,2020-04-18 19:41:15,63.75,-68.51,6.8,65,20,2.24,few clouds,0.0,0.0
112,Eureka,US,2020-04-18 19:40:44,40.8,-124.16,55.0,74,99,5.01,overcast clouds,0.0,0.0
113,Tongren,CN,2020-04-18 19:42:50,27.72,109.19,57.63,81,97,4.0,overcast clouds,0.0,0.0
114,Srednekolymsk,RU,2020-04-18 19:41:04,67.45,153.68,-4.81,89,78,9.24,broken clouds,0.0,0.0
115,Bambous Virieux,MU,2020-04-18 19:40:48,-20.34,57.76,79.0,74,40,12.75,scattered clouds,0.0,0.0
116,Mataura,NZ,2020-04-18 19:42:50,-46.19,168.86,43.0,91,94,7.0,overcast clouds,0.0,0.0
117,Mar Del Plata,AR,2020-04-18 19:42:50,-38.0,-57.56,75.2,50,10,16.11,clear sky,0.0,0.0
118,Bredasdorp,ZA,2020-04-18 19:40:28,-34.53,20.04,57.2,87,42,1.12,scattered clouds,0.0,0.0
119,Pisco,PE,2020-04-18 19:42:51,-13.7,-76.22,75.99,64,45,6.93,scattered clouds,0.0,0.0
120,Raub,MY,2020-04-18 19:42:51,3.79,101.86,73.87,86,88,0.4,overcast clouds,0.0,0.0
121,Tete,MZ,2020-04-18 19:42:51,-16.16,33.59,74.41,77,13,7.63,few clouds,0.0,0.0
122,Tiksi,RU,2020-04-18 19:42:51,71.69,128.87,3.87,85,55,4.38,broken clouds,0.0,0.0
123,Shimoda,JP,2020-04-18 19:42:52,34.67,138.95,51.01,81,0,5.01,clear sky,0.0,0.0
124,Lebu,CL,2020-04-18 19:42:52,-37.62,-73.65,61.65,72,34,5.7,scattered clouds,0.0,0.0
125,Osmaniye,TR,2020-04-18 19:42:52,37.07,36.25,66.99,92,95,1.05,overcast clouds,0.0,0.0
126,Whitehorse,CA,2020-04-18 19:40:38,60.72,-135.05,48.2,39,20,0.29,few clouds,0.0,0.0
127,Lasa,IT,2020-04-18 19:42:52,46.62,10.7,55.4,58,40,2.24,scattered clouds,0.0,0.0
128,Saiki,JP,2020-04-18 19:42:53,32.95,131.9,53.74,79,68,13.4,broken clouds,0.0,0.0
129,Fortuna,US,2020-04-18 19:42:53,40.6,-124.16,57.99,81,75,6.49,broken clouds,0.0,0.0
130,Amahai,ID,2020-04-18 19:42:53,-3.33,128.92,80.33,79,98,3.06,light rain,1.4,0.0
131,Alofi,NU,2020-04-18 19:42:53,-19.06,-169.92,78.8,88,50,10.29,scattered clouds,0.0,0.0
132,Yellowknife,CA,2020-04-18 19:40:50,62.46,-114.35,24.01,79,90,11.41,light snow,0.0,0.0
133,Matamoros,MX,2020-04-18 19:42:54,25.53,-103.25,91.4,18,75,2.24,broken clouds,0.0,0.0
134,Eyl,SO,2020-04-18 19:42:54,7.98,49.82,82.31,75,32,10.65,scattered clouds,0.0,0.0
135,Ancud,CL,2020-04-18 19:42:54,-41.87,-73.82,59.0,82,75,17.22,light intensity shower rain,0.0,0.0
136,Kavieng,PG,2020-04-18 19:40:26,-2.57,150.8,82.06,76,100,2.66,light rain,0.37,0.0
137,Ambulu,ID,2020-04-18 19:42:55,-8.35,113.61,78.33,78,98,4.65,light rain,1.47,0.0
138,The Valley,AI,2020-04-18 19:42:55,18.22,-63.06,84.2,79,40,6.93,shower rain,0.0,0.0
139,Bintulu,MY,2020-04-18 19:41:19,3.17,113.03,73.4,100,75,6.24,broken clouds,0.0,0.0
140,Mackenzie,CA,2020-04-18 19:42:56,55.3,-123.17,44.6,36,1,2.28,clear sky,0.0,0.0
141,Touros,BR,2020-04-18 19:42:56,-5.2,-35.46,86.0,70,40,10.29,shower rain,0.0,0.0
142,Jumla,NP,2020-04-18 19:42:56,29.27,82.18,44.38,28,6,3.56,clear sky,0.0,0.0
143,Yaan,NG,2020-04-18 19:42:56,7.38,8.57,84.69,61,73,9.06,broken clouds,0.0,0.0
144,Camacha,PT,2020-04-18 19:42:57,33.08,-16.33,64.4,63,40,13.87,scattered clouds,0.0,0.0
145,Carnarvon,AU,2020-04-18 19:42:57,-24.87,113.63,73.4,88,40,16.11,scattered clouds,0.0,0.0
146,Vila Franca Do Campo,PT,2020-04-18 19:42:57,37.72,-25.43,62.6,88,75,13.87,broken clouds,0.0,0.0
147,Yulara,AU,2020-04-18 19:42:57,-25.24,130.99,66.2,45,32,6.93,scattered clouds,0.0,0.0
148,Shar,KZ,2020-04-18 19:42:58,49.59,81.05,48.22,53,0,1.88,clear sky,0.0,0.0
149,Chokurdakh,RU,2020-04-18 19:42:58,70.63,147.92,-6.72,88,100,8.59,overcast clouds,0.0,0.0
150,Kenai,US,2020-04-18 19:42:58,60.55,-151.26,42.8,93,90,5.82,mist,0.0,0.0
151,Huambo,AO,2020-04-18 19:40:35,-12.78,15.74,60.03,58,100,3.27,light rain,1.37,0.0
152,Ankang,CN,2020-04-18 19:42:59,32.68,109.02,46.54,74,0,1.34,clear sky,0.0,0.0
153,Ribeira Brava,PT,2020-04-18 19:42:59,32.65,-17.07,61.0,90,23,4.0,few clouds,0.0,0.0
154,Butaritari,KI,2020-04-18 19:42:59,3.07,172.79,82.9,77,93,12.46,light rain,1.71,0.0
155,Mahebourg,MU,2020-04-18 19:40:40,-20.41,57.7,79.0,74,40,12.75,scattered clouds,0.0,0.0
156,Bubaque,GW,2020-04-18 19:43:00,11.28,-15.83,79.66,70,100,20.27,overcast clouds,0.0,0.0
157,Yumen,CN,2020-04-18 19:43:00,40.28,97.2,51.12,25,100,9.69,overcast clouds,0.0,0.0
158,Sao Filipe,CV,2020-04-18 19:43:00,14.9,-24.5,71.69,73,14,21.59,few clouds,0.0,0.0
159,Tigzirt,DZ,2020-04-18 19:43:00,36.89,4.12,67.6,70,100,10.07,light rain,1.17,0.0
160,Jacareacanga,BR,2020-04-18 19:43:01,-6.22,-57.75,80.65,89,75,0.72,moderate rain,3.45,0.0
161,Varjota,BR,2020-04-18 19:43:01,-4.19,-40.48,75.42,89,73,4.03,moderate rain,3.68,0.0
162,Arman,RU,2020-04-18 19:43:01,59.7,150.17,9.72,86,100,16.84,light snow,0.0,0.13
163,Dergachi,RU,2020-04-18 19:43:01,51.23,48.77,39.87,87,14,8.84,few clouds,0.0,0.0
164,Port Hedland,AU,2020-04-18 19:43:02,-20.32,118.57,77.0,100,99,5.82,overcast clouds,0.0,0.0
165,Vila Do Maio,CV,2020-04-18 19:43:02,15.13,-23.22,75.2,57,20,21.92,few clouds,0.0,0.0
166,Belgrade,RS,2020-04-18 19:43:02,44.8,20.47,68.0,37,14,4.7,few clouds,0.0,0.0
167,Vung Tau,VN,2020-04-18 19:43:03,10.35,107.08,81.03,80,100,14.12,overcast clouds,0.0,0.0
168,New Norfolk,AU,2020-04-18 19:40:16,-42.78,147.06,43.0,86,60,2.44,broken clouds,0.0,0.0
169,Baruun-Urt,MN,2020-04-18 19:43:03,46.68,113.28,38.14,44,75,12.93,broken clouds,0.0,0.0
170,Bluff,NZ,2020-04-18 19:43:03,-46.6,168.33,43.0,91,100,7.0,overcast clouds,0.0,0.0
171,Qaqortoq,GL,2020-04-18 19:43:04,60.72,-46.03,32.0,93,75,3.36,broken clouds,0.0,0.0
172,Santo Domingo,DO,2020-04-18 19:38:19,18.5,-69.99,89.6,59,40,11.41,scattered clouds,0.0,0.0
173,Tasiilaq,GL,2020-04-18 19:43:04,65.61,-37.64,32.0,95,100,17.22,light snow,0.0,0.67
174,Chihuahua,MX,2020-04-18 19:40:37,28.5,-106.0,87.01,16,5,5.82,clear sky,0.0,0.0
175,Priargunsk,RU,2020-04-18 19:43:04,50.37,119.1,27.32,80,44,15.93,scattered clouds,0.0,0.0
176,Kaeo,NZ,2020-04-18 19:43:05,-35.1,173.78,60.01,95,83,1.99,broken clouds,0.0,0.0
177,Los Llanos De Aridane,ES,2020-04-18 19:43:05,28.66,-17.92,68.0,64,20,19.46,few clouds,0.0,0.0
178,Riberalta,BO,2020-04-18 19:43:05,-10.98,-66.1,81.43,53,81,3.38,broken clouds,0.0,0.0
179,Mandalgovi,MN,2020-04-18 19:43:05,45.76,106.27,31.26,49,100,27.63,overcast clouds,0.0,0.0
180,Cidreira,BR,2020-04-18 19:43:05,-30.18,-50.21,68.43,78,0,11.39,clear sky,0.0,0.0
181,Sao Jose Da Coroa Grande,BR,2020-04-18 19:43:06,-8.9,-35.15,82.24,76,68,7.45,light rain,0.65,0.0
182,Hervey Bay,AU,2020-04-18 19:40:24,-25.3,152.85,73.99,100,75,4.7,light rain,0.0,0.0
183,Nortelandia,BR,2020-04-18 19:43:06,-14.45,-56.8,74.55,81,99,2.82,overcast clouds,0.0,0.0
184,Klyuchi,RU,2020-04-18 19:43:06,52.27,79.17,48.2,64,0,5.44,clear sky,0.0,0.0
185,Carutapera,BR,2020-04-18 19:43:07,-1.2,-46.02,80.11,82,83,5.26,light rain,1.79,0.0
186,Manggar,ID,2020-04-18 19:43:07,-2.88,108.27,81.14,75,100,1.45,overcast clouds,0.0,0.0
187,Broome,US,2020-04-18 19:40:49,42.25,-75.83,43.0,59,75,13.87,moderate rain,0.0,0.0
188,Casablanca,MA,2020-04-18 19:42:12,33.59,-7.62,64.4,68,40,12.75,scattered clouds,0.0,0.0
189,Uong Bi,VN,2020-04-18 19:43:07,21.03,106.78,77.0,94,100,6.93,overcast clouds,0.0,0.0
190,Hobart,AU,2020-04-18 19:43:08,-42.88,147.33,44.6,87,54,8.05,broken clouds,0.0,0.0
191,Svetlyy,RU,2020-04-18 19:43:08,54.67,20.13,39.2,69,20,13.42,few clouds,0.0,0.0
192,Sitka,US,2020-04-18 19:43:08,57.05,-135.33,44.6,87,40,4.0,scattered clouds,0.0,0.0
193,Wewak,PG,2020-04-18 19:43:08,-3.55,143.63,78.06,83,95,4.12,light rain,1.14,0.0
194,Codrington,AU,2020-04-18 19:43:08,-38.27,141.97,50.97,84,72,8.48,broken clouds,0.0,0.0
195,Mocuba,MZ,2020-04-18 19:43:09,-16.84,36.99,70.18,94,23,3.27,light rain,0.8,0.0
196,Souillac,MU,2020-04-18 19:43:09,-20.52,57.52,79.0,74,40,12.75,scattered clouds,0.0,0.0
197,Xingcheng,CN,2020-04-18 19:43:09,40.62,120.72,54.12,50,100,8.7,overcast clouds,0.0,0.0
198,Coihaique,CL,2020-04-18 19:43:09,-45.58,-72.07,50.0,81,90,8.05,light rain,0.0,0.0
199,Grindavik,IS,2020-04-18 19:40:17,63.84,-22.43,37.4,100,90,11.41,overcast clouds,0.0,0.0
200,Dodge City,US,2020-04-18 19:43:10,37.75,-100.02,66.99,29,1,26.4,clear sky,0.0,0.0
201,Umm Lajj,SA,2020-04-18 19:43:10,25.02,37.27,73.78,49,100,4.81,overcast clouds,0.0,0.0
202,Arraial Do Cabo,BR,2020-04-18 19:38:30,-22.97,-42.03,77.0,78,20,9.17,few clouds,0.0,0.0
203,Atbasar,KZ,2020-04-18 19:43:11,51.8,68.33,51.39,60,100,7.16,overcast clouds,0.0,0.0
204,Moosomin,CA,2020-04-18 19:43:11,50.13,-101.67,38.41,54,100,21.74,overcast clouds,0.0,0.0
205,Balkanabat,TM,2020-04-18 19:41:43,39.51,54.37,70.23,37,0,6.38,clear sky,0.0,0.0
206,Ocosingo,MX,2020-04-18 19:43:11,17.07,-92.25,96.8,41,40,5.59,scattered clouds,0.0,0.0
207,Jalu,LY,2020-04-18 19:41:01,29.03,21.55,70.12,28,0,6.08,clear sky,0.0,0.0
208,Pevek,RU,2020-04-18 19:43:12,69.7,170.31,-0.44,90,22,7.83,few clouds,0.0,0.0
209,Raahe,FI,2020-04-18 19:43:12,64.68,24.48,37.4,74,90,12.75,overcast clouds,0.0,0.0
210,Bose,IT,2020-04-18 19:43:12,45.46,8.01,63.0,49,97,1.97,overcast clouds,0.0,0.0
211,Luderitz,NA,2020-04-18 19:43:13,-26.65,15.16,60.8,87,8,6.93,clear sky,0.0,0.0
212,Teguldet,RU,2020-04-18 19:43:13,57.31,88.17,37.69,82,2,8.55,clear sky,0.0,0.0
213,Sobolevo,RU,2020-04-18 19:43:13,54.43,31.9,35.64,80,90,6.78,overcast clouds,0.0,0.0
214,Evensk,RU,2020-04-18 19:40:27,61.95,159.23,13.5,88,100,11.12,overcast clouds,0.0,0.0
215,Upernavik,GL,2020-04-18 19:43:13,72.79,-56.15,23.9,91,100,21.18,overcast clouds,0.0,0.0
216,Trinidad,BO,2020-04-18 19:43:14,-14.83,-64.9,84.2,45,0,12.75,clear sky,0.0,0.0
217,Kimbe,PG,2020-04-18 19:43:14,-5.55,150.14,77.95,85,83,2.01,broken clouds,0.0,0.0
218,Salalah,OM,2020-04-18 19:43:14,17.02,54.09,82.4,74,40,6.93,scattered clouds,0.0,0.0
219,Cabo San Lucas,MX,2020-04-18 19:41:35,22.89,-109.91,79.0,56,5,19.46,clear sky,0.0,0.0
220,Pizarro,CO,2020-04-18 19:43:14,4.95,-77.37,79.09,84,97,2.95,light rain,1.35,0.0
221,Muhlhausen,DE,2020-04-18 19:43:15,51.22,10.45,60.01,88,100,10.22,light rain,0.29,0.0
222,La Asuncion,VE,2020-04-18 19:43:15,11.03,-63.86,89.6,46,28,19.46,scattered clouds,0.0,0.0
223,College,US,2020-04-18 19:43:15,64.86,-147.8,41.0,100,90,2.39,light rain,0.0,0.0
224,Solnechnyy,RU,2020-04-18 19:40:40,50.72,136.63,29.71,87,84,3.53,broken clouds,0.0,0.0
225,Mahajanga,MG,2020-04-18 19:41:14,-15.72,46.32,84.2,58,75,8.05,broken clouds,0.0,0.0
226,Sao Lourenco Do Sul,BR,2020-04-18 19:43:16,-31.37,-51.98,77.0,57,20,16.11,few clouds,0.0,0.0
227,Severo-Kurilsk,RU,2020-04-18 19:43:16,50.68,156.12,34.39,88,9,10.07,clear sky,0.0,0.0
228,San Patricio,MX,2020-04-18 19:40:23,19.22,-104.7,82.4,78,20,11.41,few clouds,0.0,0.0
229,Provideniya,RU,2020-04-18 19:40:23,64.38,-173.3,22.05,95,100,14.54,light snow,0.0,0.68
230,Berlevag,NO,2020-04-18 19:43:17,70.86,29.09,36.45,82,99,15.61,overcast clouds,0.0,0.0
231,Westerland,DE,2020-04-18 19:43:17,54.91,8.3,46.0,58,0,5.99,clear sky,0.0,0.0
232,Brun,AM,2020-04-18 19:43:18,39.53,46.31,44.01,46,91,2.8,overcast clouds,0.0,0.0
233,Halifax,CA,2020-04-18 19:43:18,44.65,-63.57,42.01,61,100,1.01,light snow,0.0,0.39
234,Fatsa,TR,2020-04-18 19:43:18,41.03,37.5,52.68,70,25,3.69,scattered clouds,0.0,0.0
235,Buchanan,LR,2020-04-18 19:43:18,5.88,-10.05,82.4,83,75,8.37,broken clouds,0.0,0.0
236,Marau,BR,2020-04-18 19:43:18,-28.45,-52.2,64.35,61,13,4.18,few clouds,0.0,0.0
237,Port Hardy,CA,2020-04-18 19:40:37,50.7,-127.42,48.2,87,40,6.93,scattered clouds,0.0,0.0
238,Katsuura,JP,2020-04-18 19:43:19,35.13,140.3,57.99,72,9,5.99,clear sky,0.0,0.0
239,Nikolskoye,RU,2020-04-18 19:40:19,59.7,30.79,37.4,91,90,11.18,overcast clouds,0.0,0.0
240,Ugoofaaru,MV,2020-04-18 19:40:38,5.67,73.0,85.91,73,3,10.31,light rain,0.19,0.0
241,Sampang,ID,2020-04-18 19:43:20,-7.19,113.24,79.12,82,83,2.89,light rain,0.19,0.0
242,Tautira,PF,2020-04-18 19:43:20,-17.73,-149.15,86.0,66,89,2.24,light rain,0.13,0.0
243,Abu Kamal,SY,2020-04-18 19:43:20,34.45,40.92,76.68,29,68,1.34,broken clouds,0.0,0.0
244,Rio Gallegos,AR,2020-04-18 19:41:03,-51.62,-69.22,60.8,51,75,20.8,broken clouds,0.0,0.0
245,Soto La Marina,MX,2020-04-18 19:39:15,23.77,-98.22,86.0,72,97,10.0,overcast clouds,0.0,0.0
246,Kodiak,US,2020-04-18 19:40:49,57.79,-152.41,46.4,75,1,8.05,clear sky,0.0,0.0
247,Long Beach,US,2020-04-18 19:41:02,33.77,-118.19,66.0,59,90,10.29,overcast clouds,0.0,0.0
248,Ocean City,US,2020-04-18 19:43:21,39.28,-74.57,50.0,61,90,18.34,overcast clouds,0.0,0.0
249,Jesus Carranza,MX,2020-04-18 19:43:21,17.43,-95.03,104.07,23,2,8.88,clear sky,0.0,0.0
250,Faanui,PF,2020-04-18 19:40:41,-16.48,-151.75,82.87,73,26,9.57,scattered clouds,0.0,0.0
251,Yago,MX,2020-04-18 19:43:22,21.83,-105.07,87.8,38,75,11.41,broken clouds,0.0,0.0
252,Smithers,CA,2020-04-18 19:43:22,54.78,-127.17,55.4,43,20,6.93,few clouds,0.0,0.0
253,Pacific Grove,US,2020-04-18 19:41:35,36.62,-121.92,60.8,55,90,8.05,overcast clouds,0.0,0.0
254,Hun,LY,2020-04-18 19:43:22,29.13,15.95,73.18,21,12,10.83,few clouds,0.0,0.0
255,Zhigansk,RU,2020-04-18 19:43:23,66.77,123.37,1.26,93,88,12.15,overcast clouds,0.0,0.0
256,Kampot,KH,2020-04-18 19:43:23,10.62,104.18,80.8,79,85,2.66,overcast clouds,0.0,0.0
257,Wanning,CN,2020-04-18 19:43:23,18.8,110.4,75.61,90,4,8.39,clear sky,0.0,0.0
258,Lodja,CD,2020-04-18 19:43:23,-3.48,23.43,70.83,83,17,1.03,few clouds,0.0,0.0
259,Gambela,ET,2020-04-18 19:43:24,8.25,34.58,82.26,24,74,2.08,broken clouds,0.0,0.0
260,Asau,RO,2020-04-18 19:43:24,46.43,26.4,50.0,53,33,8.05,scattered clouds,0.0,0.0
261,Alugan,PH,2020-04-18 19:43:24,12.22,125.48,81.46,78,13,14.79,light rain,0.12,0.0
262,Tevaitoa,PF,2020-04-18 19:43:24,-16.78,-151.5,83.61,73,22,8.7,few clouds,0.0,0.0
263,Cajati,BR,2020-04-18 19:43:24,-24.74,-48.12,66.25,88,78,1.68,light rain,0.4,0.0
264,Rabo De Peixe,PT,2020-04-18 19:43:25,37.8,-25.58,62.6,88,75,13.87,broken clouds,0.0,0.0
265,Nhulunbuy,AU,2020-04-18 19:43:25,-12.23,136.77,77.0,88,40,8.99,scattered clouds,0.0,0.0
266,Victoria,HK,2020-04-18 19:41:32,22.29,114.16,75.0,88,33,5.99,scattered clouds,0.0,0.0
267,Mangochi,MW,2020-04-18 19:43:25,-14.48,35.26,69.12,74,16,7.16,few clouds,0.0,0.0
268,Tessalit,ML,2020-04-18 19:43:25,20.2,1.01,87.4,11,5,5.64,clear sky,0.0,0.0
269,Bengkulu,ID,2020-04-18 19:40:24,-3.8,102.27,77.14,84,100,4.85,light rain,0.57,0.0
270,Cabedelo,BR,2020-04-18 19:40:56,-6.98,-34.83,84.2,74,40,5.82,scattered clouds,0.0,0.0
271,Bud,US,2020-04-18 19:43:26,39.45,-86.18,53.01,43,40,5.82,scattered clouds,0.0,0.0
272,Kirksville,US,2020-04-18 19:43:26,40.19,-92.58,57.99,50,1,19.46,clear sky,0.0,0.0
273,Saint-Francois,FR,2020-04-18 19:43:15,46.42,3.91,62.6,63,84,2.24,broken clouds,0.0,0.0
274,Waingapu,ID,2020-04-18 19:43:27,-9.66,120.26,78.69,80,69,4.29,broken clouds,0.0,0.0
275,Clyde River,CA,2020-04-18 19:43:27,70.47,-68.59,15.8,78,75,5.82,light snow,0.0,0.0
276,Bure,ET,2020-04-18 19:43:27,10.7,37.07,67.68,12,98,4.09,overcast clouds,0.0,0.0
277,Koping,SE,2020-04-18 19:43:27,59.51,15.99,48.0,42,12,6.93,few clouds,0.0,0.0
278,Anadyr,RU,2020-04-18 19:43:28,64.75,177.48,14.0,92,90,17.9,light snow,0.0,0.0
279,Namibe,AO,2020-04-18 19:41:29,-15.2,12.15,74.34,71,78,4.61,light rain,0.47,0.0
280,Longonjo,AO,2020-04-18 19:43:28,-12.91,15.25,63.32,56,97,2.98,light rain,0.47,0.0
281,Yar-Sale,RU,2020-04-18 19:43:28,66.83,70.83,34.52,98,100,7.27,light rain,0.3,0.0
282,Georgetown,MY,2020-04-18 19:42:50,5.41,100.34,82.4,88,40,3.36,scattered clouds,0.0,0.0
283,Veraval,IN,2020-04-18 19:43:29,20.9,70.37,80.71,57,12,11.34,few clouds,0.0,0.0
284,Padang,ID,2020-04-18 19:43:29,-0.95,100.35,78.26,77,100,1.54,light rain,1.46,0.0
285,Kruisfontein,ZA,2020-04-18 19:40:30,-34.0,24.73,64.98,43,0,5.82,clear sky,0.0,0.0
286,Chattanooga,US,2020-04-18 19:38:50,35.05,-85.31,64.0,41,20,8.05,few clouds,0.0,0.0
287,Norman Wells,CA,2020-04-18 19:40:28,65.28,-126.83,39.2,93,90,11.41,light rain,0.0,0.0
288,Boguchany,RU,2020-04-18 19:43:30,58.38,97.45,24.33,93,0,4.14,clear sky,0.0,0.0
289,Ostrovnoy,RU,2020-04-18 19:43:30,68.05,39.51,32.29,96,100,10.22,light snow,0.0,0.17
290,Acapulco,MX,2020-04-18 19:43:30,16.86,-99.89,84.2,70,5,9.17,haze,0.0,0.0
291,Verkhnyaya Inta,RU,2020-04-18 19:43:31,65.98,60.31,30.63,97,100,3.62,overcast clouds,0.0,0.0
292,Taoudenni,ML,2020-04-18 19:40:34,22.68,-3.98,81.43,43,14,24.67,few clouds,0.0,0.0
293,Male,MV,2020-04-18 19:43:31,4.17,73.51,85.64,74,5,10.94,light rain,1.1,0.0
294,Manokwari,ID,2020-04-18 19:43:31,-0.87,134.08,81.73,69,100,2.35,light rain,2.32,0.0
295,Geraldton,AU,2020-04-18 19:43:31,-28.77,114.6,66.2,93,40,2.24,scattered clouds,0.0,0.0
296,Esmeraldas,BR,2020-04-18 19:43:32,-19.76,-44.31,73.4,73,40,9.17,scattered clouds,0.0,0.0
297,Nemuro,JP,2020-04-18 19:43:32,43.32,145.57,40.26,80,100,10.04,overcast clouds,0.0,0.0
298,Cayenne,GF,2020-04-18 19:43:32,4.93,-52.33,86.0,66,75,12.75,broken clouds,0.0,0.0
299,Stokmarknes,NO,2020-04-18 19:43:32,68.56,14.91,41.0,87,100,7.0,light rain,0.22,0.0
300,Kalmunai,LK,2020-04-18 19:43:33,7.42,81.82,81.66,79,65,5.41,light rain,0.9,0.0
301,Simbahan,PH,2020-04-18 19:43:33,6.3,120.58,84.18,79,59,13.65,broken clouds,0.0,0.0
302,Gamba,GA,2020-04-18 19:43:33,-2.65,10.0,79.3,82,100,1.66,overcast clouds,0.0,0.0
303,Lahat,ID,2020-04-18 19:43:33,-3.8,103.53,73.71,85,86,2.8,light rain,0.54,0.0
304,Praia Da Vitoria,PT,2020-04-18 19:40:35,38.73,-27.07,64.4,82,75,17.94,broken clouds,0.0,0.0
305,Ixtapa,MX,2020-04-18 19:43:34,20.7,-105.2,78.8,69,90,13.87,overcast clouds,0.0,0.0
306,Alta Floresta,BR,2020-04-18 19:43:34,-9.88,-56.09,77.0,83,40,5.82,light rain,0.0,0.0
307,Storozhevaya,RU,2020-04-18 19:43:34,43.88,41.45,43.57,46,96,4.7,overcast clouds,0.0,0.0
308,Broken Hill,AU,2020-04-18 19:40:41,-31.95,141.43,50.0,57,40,4.7,scattered clouds,0.0,0.0
309,Vestmanna,FO,2020-04-18 19:43:35,62.16,-7.17,42.8,81,0,14.99,clear sky,0.0,0.0
310,Bonavista,CA,2020-04-18 19:43:35,48.65,-53.11,37.99,50,92,10.0,light snow,0.0,0.7
311,Farmington,US,2020-04-18 19:43:35,36.73,-108.22,59.0,21,75,8.05,broken clouds,0.0,0.0
312,At-Bashi,KG,2020-04-18 19:43:35,41.17,75.81,41.2,25,31,2.71,scattered clouds,0.0,0.0
313,Bow Island,CA,2020-04-18 19:43:36,49.87,-111.37,42.44,44,99,9.69,overcast clouds,0.0,0.0
314,Cherskiy,RU,2020-04-18 19:43:36,68.75,161.3,1.31,87,50,5.46,scattered clouds,0.0,0.0
315,San Andres,CO,2020-04-18 19:39:51,12.58,-81.7,87.8,62,20,10.29,few clouds,0.0,0.0
316,Hanko,FI,2020-04-18 19:43:36,59.83,22.95,41.0,49,21,1.01,few clouds,0.0,0.0
317,Lazo,RU,2020-04-18 19:43:36,43.38,133.9,40.89,65,0,1.97,clear sky,0.0,0.0
318,Saint-Paul,RE,2020-04-18 19:43:37,-21.01,55.27,77.0,83,90,14.99,overcast clouds,0.0,0.0
319,Khani,GE,2020-04-18 19:43:37,41.96,42.96,53.6,81,40,5.82,scattered clouds,0.0,0.0
320,Husavik,IS,2020-04-18 19:40:41,66.04,-17.34,46.4,75,90,44.96,light intensity drizzle,0.0,0.0
321,Las Palmas,ES,2020-04-18 19:40:14,28.42,-14.01,66.2,82,20,6.93,few clouds,0.0,0.0
322,Korla,CN,2020-04-18 19:43:37,41.76,86.15,59.74,34,100,9.42,overcast clouds,0.0,0.0
323,Ndago,TZ,2020-04-18 19:43:38,-4.6,34.35,62.24,57,97,4.85,overcast clouds,0.0,0.0
324,Carai,BR,2020-04-18 19:43:38,-17.19,-41.69,65.61,75,99,6.11,light rain,0.2,0.0
325,Mae Sai,TH,2020-04-18 19:43:38,20.43,99.88,79.0,73,20,2.24,few clouds,0.0,0.0
326,Kulu,TR,2020-04-18 19:43:38,39.1,33.08,55.24,29,15,6.17,few clouds,0.0,0.0
327,Kavaratti,IN,2020-04-18 19:43:23,10.57,72.64,84.13,71,1,4.56,clear sky,0.0,0.0
328,Belmonte,BR,2020-04-18 19:41:14,-15.86,-38.88,75.2,88,90,9.17,light rain,0.0,0.0
329,Batemans Bay,AU,2020-04-18 19:43:39,-35.72,150.18,57.99,100,95,1.72,light rain,0.83,0.0
330,Beringovskiy,RU,2020-04-18 19:41:08,63.05,179.32,19.63,96,100,16.02,light snow,0.0,0.96
331,Griffith,US,2020-04-18 19:41:25,41.53,-87.42,57.0,43,40,19.46,scattered clouds,0.0,0.0
332,Hovd,MN,2020-04-18 19:43:39,48.01,91.64,33.57,41,0,2.1,clear sky,0.0,0.0
333,Homer,US,2020-04-18 19:43:40,59.64,-151.55,51.8,76,1,9.17,clear sky,0.0,0.0
334,Huarmey,PE,2020-04-18 19:43:40,-10.07,-78.15,77.94,63,18,9.24,few clouds,0.0,0.0
335,Cawayan,PH,2020-04-18 19:43:40,9.97,122.62,80.78,77,12,10.25,few clouds,0.0,0.0
336,Azul,AR,2020-04-18 19:43:40,-36.78,-59.86,75.0,43,0,5.01,clear sky,0.0,0.0
337,Guerrero Negro,MX,2020-04-18 19:43:40,27.98,-114.06,66.87,53,0,20.18,clear sky,0.0,0.0
338,Kitsuki,JP,2020-04-18 19:43:41,33.42,131.62,51.01,70,98,4.52,overcast clouds,0.0,0.0
339,Kinna,SE,2020-04-18 19:43:41,57.51,12.69,41.0,44,0,5.82,clear sky,0.0,0.0
340,Oktyabrskoye,RU,2020-04-18 19:43:41,43.06,44.74,46.4,65,99,6.71,overcast clouds,0.0,0.0
341,Noyabrsk,RU,2020-04-18 19:43:41,63.2,75.45,41.88,90,100,19.06,light rain,0.37,0.0
342,Chuguyevka,RU,2020-04-18 19:43:42,44.17,133.86,40.98,65,0,2.82,clear sky,0.0,0.0
343,Dwarka,IN,2020-04-18 19:43:42,22.24,68.97,80.35,81,33,13.73,scattered clouds,0.0,0.0
344,Bad Aussee,AT,2020-04-18 19:43:42,47.61,13.78,53.01,84,100,2.93,light rain,0.17,0.0
345,Sur,OM,2020-04-18 19:40:50,22.57,59.53,81.7,58,3,6.8,clear sky,0.0,0.0
346,Bandarbeyla,SO,2020-04-18 19:40:47,9.49,50.81,81.18,72,7,8.84,clear sky,0.0,0.0
347,Sao Joao Da Barra,BR,2020-04-18 19:43:43,-21.64,-41.05,77.0,65,20,18.34,few clouds,0.0,0.0
348,Kamenka,RU,2020-04-18 19:43:43,51.32,42.77,36.0,80,0,1.99,clear sky,0.0,0.0
349,Gayny,RU,2020-04-18 19:43:43,60.31,54.32,33.71,93,100,5.7,light snow,0.0,0.27
350,Damietta,EG,2020-04-18 19:43:43,31.42,31.81,66.2,88,2,20.8,clear sky,0.0,0.0
351,Grand-Santi,GF,2020-04-18 19:43:44,4.25,-54.38,80.71,85,69,3.06,light rain,2.9,0.0
352,Nuevo Progreso,MX,2020-04-18 19:43:44,23.17,-97.95,86.0,62,77,5.01,broken clouds,0.0,0.0
353,Inhambane,MZ,2020-04-18 19:43:44,-23.86,35.38,77.0,69,20,6.93,few clouds,0.0,0.0
354,Urengoy,RU,2020-04-18 19:43:44,65.97,78.37,38.28,91,100,20.54,overcast clouds,0.0,0.0
355,Wanganui,NZ,2020-04-18 19:43:44,-39.93,175.05,57.99,80,68,18.01,light rain,0.0,0.0
356,Wawa,NG,2020-04-18 19:43:45,9.9,4.42,88.54,49,16,12.62,few clouds,0.0,0.0
357,Verkh-Usugli,RU,2020-04-18 19:43:45,52.7,115.17,15.98,86,73,7.27,broken clouds,0.0,0.0
358,Hurricane,US,2020-04-18 19:43:45,37.18,-113.29,70.0,34,1,14.29,clear sky,0.0,0.0
359,Tsaratanana,MG,2020-04-18 19:43:45,-16.78,47.65,71.76,64,40,8.12,scattered clouds,0.0,0.0
360,Beatrice,US,2020-04-18 19:43:45,40.27,-96.75,69.8,28,1,24.16,clear sky,0.0,0.0
361,Weligama,LK,2020-04-18 19:43:46,5.97,80.42,78.8,87,14,4.14,light rain,0.13,0.0
362,San Pedro,PH,2020-04-18 19:43:46,14.35,121.02,84.2,74,40,3.36,scattered clouds,0.0,0.0
363,Pearl,US,2020-04-18 19:43:46,32.27,-90.13,66.99,59,40,3.36,scattered clouds,0.0,0.0
364,Plettenberg Bay,ZA,2020-04-18 19:43:46,-34.05,23.37,70.99,35,0,5.82,clear sky,0.0,0.0
365,Goderich,CA,2020-04-18 19:40:40,43.75,-81.72,52.0,53,46,18.07,scattered clouds,0.0,0.0
366,Naze,JP,2020-04-18 19:43:47,28.37,129.48,64.4,88,90,4.7,overcast clouds,0.0,0.0
367,Vao,NC,2020-04-18 19:41:30,-22.67,167.48,75.69,69,74,10.04,broken clouds,0.0,0.0
368,Marsa Matruh,EG,2020-04-18 19:43:47,31.35,27.25,60.8,77,20,6.4,few clouds,0.0,0.0
369,Dori,BF,2020-04-18 19:43:48,14.04,-0.03,91.49,20,52,7.76,broken clouds,0.0,0.0
370,Murgab,TM,2020-04-18 19:41:03,37.5,61.97,64.4,63,75,3.91,broken clouds,0.0,0.0
371,Manzanillo,CU,2020-04-18 19:43:48,20.34,-77.12,87.62,52,9,10.92,clear sky,0.0,0.0
372,Severnyy-Kospashskiy,RU,2020-04-18 19:43:48,59.09,57.8,33.01,97,96,3.0,overcast clouds,0.0,0.0
373,Ucluelet,CA,2020-04-18 19:43:49,48.93,-125.55,63.0,87,90,9.17,overcast clouds,0.0,0.0
374,Airai,TL,2020-04-18 19:43:49,-8.93,125.41,59.79,55,48,2.89,scattered clouds,0.0,0.0
375,Nayudupeta,IN,2020-04-18 19:43:49,13.9,79.9,77.77,84,33,8.77,scattered clouds,0.0,0.0
376,Leningradskiy,RU,2020-04-18 19:40:58,69.38,178.42,2.21,88,6,7.49,clear sky,0.0,0.0
377,Torbay,CA,2020-04-18 19:40:36,47.67,-52.73,39.99,51,75,14.99,light shower snow,0.0,0.0
378,Mao,ES,2020-04-18 19:40:15,39.89,4.27,64.4,88,100,8.05,light rain,0.54,0.0
379,Marawi,PH,2020-04-18 19:40:25,8.0,124.29,66.67,67,36,3.22,scattered clouds,0.0,0.0
380,Kirkwall,GB,2020-04-18 19:43:50,58.98,-2.96,44.6,75,0,9.17,clear sky,0.0,0.0
381,Doha,QA,2020-04-18 19:40:14,25.29,51.53,78.01,69,44,6.93,scattered clouds,0.0,0.0
382,San Francisco,US,2020-04-18 19:42:48,37.77,-122.42,62.6,51,75,9.17,broken clouds,0.0,0.0
383,Harper,LR,2020-04-18 19:43:51,4.38,-7.72,80.46,84,100,8.28,light rain,0.67,0.0
384,Bahia Blanca,AR,2020-04-18 19:41:08,-38.72,-62.27,76.51,30,71,17.09,broken clouds,0.0,0.0
385,Miles City,US,2020-04-18 19:43:51,46.41,-105.84,51.01,61,90,4.7,light rain,0.0,0.0
386,Tiarei,PF,2020-04-18 19:43:51,-17.53,-149.33,86.0,66,75,2.24,light rain,0.17,0.0
387,Cotonou,BJ,2020-04-18 19:43:52,6.37,2.42,84.2,83,40,11.41,scattered clouds,0.0,0.0
388,Scottsbluff,US,2020-04-18 19:43:52,41.87,-103.67,62.6,18,1,10.29,clear sky,0.0,0.0
389,Trairi,BR,2020-04-18 19:43:52,-3.28,-39.27,80.15,78,25,3.67,light rain,0.55,0.0
390,Lebedinyy,RU,2020-04-18 19:43:52,58.52,125.52,-0.56,85,89,2.35,overcast clouds,0.0,0.0
391,Saint-Denis,FR,2020-04-18 19:43:52,48.92,2.33,64.0,67,44,4.7,scattered clouds,0.0,0.0
392,Santa Pola,ES,2020-04-18 19:43:53,38.19,-0.57,64.99,82,75,10.29,light intensity drizzle,0.0,0.0
393,Matinha,BR,2020-04-18 19:43:53,-3.1,-45.03,77.34,93,100,2.24,moderate rain,6.54,0.0
394,Vanersborg,SE,2020-04-18 19:39:48,58.38,12.32,44.6,48,0,4.16,clear sky,0.0,0.0
395,Dudinka,RU,2020-04-18 19:43:53,69.41,86.18,37.4,74,100,33.55,overcast clouds,0.0,0.0
396,Mosquera,CO,2020-04-18 19:39:52,4.71,-74.23,64.4,52,75,6.93,broken clouds,0.0,0.0
397,Lavrentiya,RU,2020-04-18 19:43:54,65.58,-171.0,18.59,95,100,9.57,light snow,0.0,0.88
398,Kahului,US,2020-04-18 19:40:28,20.89,-156.47,77.0,50,20,3.36,few clouds,0.0,0.0
399,Odienne,CI,2020-04-18 19:43:54,9.51,-7.57,86.61,49,98,8.9,overcast clouds,0.0,0.0
400,Oranjemund,NA,2020-04-18 19:43:54,-28.55,16.43,57.63,85,4,2.51,clear sky,0.0,0.0
401,Lujiang,CN,2020-04-18 19:43:54,31.26,117.28,53.6,100,90,6.71,light rain,0.0,0.0
402,Hutchinson,US,2020-04-18 19:43:09,38.06,-97.93,64.99,33,1,27.51,clear sky,0.0,0.0
403,Sola,VU,2020-04-18 19:43:55,-13.88,167.55,82.83,78,85,12.12,overcast clouds,0.0,0.0
404,Mahibadhoo,MV,2020-04-18 19:40:10,3.78,72.97,84.63,74,58,7.65,moderate rain,3.56,0.0
405,Pimenta Bueno,BR,2020-04-18 19:43:55,-11.67,-61.19,78.64,78,54,3.53,light rain,0.21,0.0
406,Ambon,ID,2020-04-18 19:43:55,-3.7,128.18,82.69,73,84,3.18,light rain,1.1,0.0
407,Bulungu,CD,2020-04-18 19:43:56,-4.55,18.6,71.92,84,100,3.42,overcast clouds,0.0,0.0
408,Konevo,RU,2020-04-18 19:43:56,62.12,39.32,27.32,98,55,3.36,broken clouds,0.0,0.0
409,Solenzo,BF,2020-04-18 19:43:56,12.18,-4.08,94.55,22,100,4.38,overcast clouds,0.0,0.0
410,San Cristobal,VE,2020-04-18 19:43:56,7.77,-72.22,87.8,45,40,10.29,smoke,0.0,0.0
411,Nowogard,PL,2020-04-18 19:43:57,53.67,15.12,48.2,36,71,5.82,broken clouds,0.0,0.0
412,Laguna,US,2020-04-18 19:43:57,38.42,-121.42,64.99,55,90,9.17,overcast clouds,0.0,0.0
413,Erzin,TR,2020-04-18 19:43:57,36.96,36.2,68.0,56,97,16.11,overcast clouds,0.0,0.0
414,Pacifica,US,2020-04-18 19:43:57,37.61,-122.49,61.0,67,90,6.93,overcast clouds,0.0,0.0
415,Roma,US,2020-04-18 19:41:25,43.21,-75.46,46.4,45,90,9.17,overcast clouds,0.0,0.0
416,Bonfim,BR,2020-04-18 19:43:58,3.08,-59.95,94.57,36,41,1.7,scattered clouds,0.0,0.0
417,Egvekinot,RU,2020-04-18 19:43:58,66.32,-179.17,6.76,89,100,21.54,light snow,0.0,0.73
418,Chikwawa,MW,2020-04-18 19:43:58,-16.03,34.8,72.81,82,31,6.67,light rain,0.19,0.0
419,Poso,ID,2020-04-18 19:43:58,-1.4,120.75,77.99,68,81,2.57,broken clouds,0.0,0.0
420,Algeciras,ES,2020-04-18 19:43:58,36.13,-5.45,64.4,82,44,6.93,light rain,0.42,0.0
421,Bay City,US,2020-04-18 19:43:59,43.59,-83.89,55.4,34,40,21.92,scattered clouds,0.0,0.0
422,Narsaq,GL,2020-04-18 19:43:59,60.92,-46.05,32.0,91,75,3.36,broken clouds,0.0,0.0
423,Fairbanks,US,2020-04-18 19:43:59,64.84,-147.72,41.0,100,90,2.17,light rain,0.0,0.0
424,Arkhara,RU,2020-04-18 19:44:00,49.42,130.08,48.72,46,100,11.05,overcast clouds,0.0,0.0
425,Mingshui,CN,2020-04-18 19:44:00,36.72,117.5,57.0,83,100,3.56,moderate rain,3.01,0.0
426,Ouesso,CG,2020-04-18 19:44:00,1.61,16.05,72.68,87,97,2.08,overcast clouds,0.0,0.0
427,Klaksvik,FO,2020-04-18 19:44:00,62.23,-6.59,42.8,81,0,14.99,clear sky,0.0,0.0
428,Meulaboh,ID,2020-04-18 19:44:00,4.14,96.13,78.6,83,84,4.36,light rain,0.57,0.0
429,Yarada,IN,2020-04-18 19:44:01,17.65,83.27,84.2,79,75,4.7,broken clouds,0.0,0.0
430,Swinoujscie,PL,2020-04-18 19:44:01,53.91,14.25,46.99,46,14,9.31,few clouds,0.0,0.0
431,Rosita,NI,2020-04-18 19:43:12,13.93,-84.4,83.79,64,91,3.8,light rain,0.61,0.0
432,Mnogovershinnyy,RU,2020-04-18 19:43:13,53.94,139.92,18.39,86,83,1.97,broken clouds,0.0,0.0
433,Araci,BR,2020-04-18 19:44:01,-11.33,-38.97,75.2,80,40,8.84,moderate rain,3.53,0.0
434,Gao,ML,2020-04-18 19:43:41,16.64,1.64,90.0,9,24,10.38,few clouds,0.0,0.0
435,Sarila,IN,2020-04-18 19:44:02,25.77,79.68,86.32,20,11,5.39,few clouds,0.0,0.0
436,Shihezi,CN,2020-04-18 19:44:02,44.3,86.03,56.5,38,8,3.4,clear sky,0.0,0.0
437,Salinopolis,BR,2020-04-18 19:44:02,-0.61,-47.36,81.36,77,86,6.26,light rain,0.43,0.0
438,Amapa,BR,2020-04-18 19:41:50,1.0,-52.0,76.78,86,86,1.36,overcast clouds,0.0,0.0
439,Nieves,PH,2020-04-18 19:44:03,15.33,120.95,78.8,83,75,2.24,broken clouds,0.0,0.0
440,Skjervoy,NO,2020-04-18 19:44:03,70.03,20.97,39.94,89,100,18.63,light rain,0.29,0.0
441,Jabinyanah,TN,2020-04-18 19:44:03,35.03,10.91,69.8,77,92,3.36,overcast clouds,0.0,0.0
442,Talnakh,RU,2020-04-18 19:41:16,69.49,88.4,37.4,74,100,33.55,overcast clouds,0.0,0.0
443,Manono,CD,2020-04-18 19:44:03,-7.3,27.42,70.79,80,100,3.33,light rain,1.44,0.0
444,Hammerfest,NO,2020-04-18 19:44:04,70.66,23.68,35.6,100,98,18.34,fog,0.0,0.0
445,Tuatapere,NZ,2020-04-18 19:40:27,-46.13,167.68,43.0,91,42,7.0,scattered clouds,0.0,0.0
446,Along,IN,2020-04-18 19:44:04,28.17,94.77,65.62,69,100,2.01,light rain,2.73,0.0
447,Nushki,PK,2020-04-18 19:44:04,29.55,66.02,69.6,23,96,3.62,overcast clouds,0.0,0.0
448,Rawson,AR,2020-04-18 19:44:04,-43.3,-65.1,67.8,64,89,15.57,light rain,0.24,0.0
449,Madison,US,2020-04-18 19:41:06,34.73,-86.57,61.0,58,1,4.79,clear sky,0.0,0.0
450,Fez,MA,2020-04-18 19:41:35,34.04,-5.0,68.0,60,40,12.75,scattered clouds,0.0,0.0
451,Leshukonskoye,RU,2020-04-18 19:44:05,64.9,45.76,30.18,98,93,2.48,overcast clouds,0.0,0.0
452,Paamiut,GL,2020-04-18 19:41:21,61.99,-49.67,27.77,94,100,23.58,light snow,0.0,0.38
453,Portland,US,2020-04-18 19:41:01,45.52,-122.68,51.8,76,90,11.41,light rain,0.0,0.0
454,Nambucca Heads,AU,2020-04-18 19:44:06,-30.65,153.0,61.0,93,75,4.7,broken clouds,0.0,0.0
455,Samarai,PG,2020-04-18 19:44:06,-10.62,150.67,80.44,78,94,0.74,overcast clouds,0.0,0.0
456,Ahipara,NZ,2020-04-18 19:44:07,-35.17,173.17,65.66,82,87,8.72,overcast clouds,0.0,0.0
457,Seoul,KR,2020-04-18 19:44:07,37.57,126.98,53.6,81,20,4.54,few clouds,0.0,0.0
458,Bac Lieu,VN,2020-04-18 19:44:07,9.29,105.72,81.21,81,86,11.03,overcast clouds,0.0,0.0
459,Sokoni,TZ,2020-04-18 19:44:07,-6.43,39.55,75.2,94,75,11.41,broken clouds,0.0,0.0
460,Vanino,RU,2020-04-18 19:44:07,49.09,140.25,31.59,94,65,4.36,broken clouds,0.0,0.0
461,Heihe,CN,2020-04-18 19:44:08,50.24,127.49,41.0,35,100,8.95,overcast clouds,0.0,0.0
462,Buluang,PH,2020-04-18 19:44:08,13.31,123.34,77.5,86,28,6.55,scattered clouds,0.0,0.0
463,Erenhot,CN,2020-04-18 19:44:08,43.65,111.98,47.41,47,78,12.15,broken clouds,0.0,0.0
464,Bridgewater,CA,2020-04-18 19:44:08,44.38,-64.52,37.0,91,100,1.01,light snow,0.0,0.84
465,Enniscorthy,IE,2020-04-18 19:44:08,52.5,-6.56,48.0,100,75,8.05,mist,0.0,0.0
466,Lensk,RU,2020-04-18 19:44:09,60.73,114.93,11.91,92,98,4.41,overcast clouds,0.0,0.0
467,Kisangani,CD,2020-04-18 19:44:09,0.52,25.2,71.8,83,95,1.59,light rain,1.16,0.0
468,Kiunga,PG,2020-04-18 19:44:09,-6.12,141.29,74.59,97,100,1.54,light rain,0.48,0.0
469,Chara,RU,2020-04-18 19:44:09,56.91,118.26,10.63,76,100,6.8,overcast clouds,0.0,0.0
470,Barpeta,IN,2020-04-18 19:44:09,26.32,91.0,71.64,82,62,1.61,light rain,2.59,0.0
471,Jiayuguan,CN,2020-04-18 19:40:48,39.82,98.3,48.04,25,97,2.39,overcast clouds,0.0,0.0
472,Banjar,ID,2020-04-18 19:44:10,-8.19,114.97,78.8,100,20,4.7,few clouds,0.0,0.0
473,Totskoye,RU,2020-04-18 19:44:10,52.52,52.76,40.1,67,43,7.4,scattered clouds,0.0,0.0
474,Acari,PE,2020-04-18 19:44:10,-15.43,-74.62,78.91,50,5,6.69,clear sky,0.0,0.0
475,Dekar,BW,2020-04-18 19:40:31,-21.53,21.93,73.92,31,14,7.85,few clouds,0.0,0.0
476,Sabaudia,IT,2020-04-18 19:44:11,41.3,13.03,61.0,84,79,3.0,broken clouds,0.0,0.0
477,Dentsville,US,2020-04-18 19:42:28,34.06,-80.96,77.0,36,1,6.93,clear sky,0.0,0.0
478,Lorengau,PG,2020-04-18 19:40:38,-2.02,147.27,82.06,76,11,4.07,few clouds,0.0,0.0
479,Collie,AU,2020-04-18 19:43:48,-33.37,116.15,62.01,77,100,11.03,moderate rain,4.57,0.0
480,Aykhal,RU,2020-04-18 19:44:12,66.0,111.5,8.6,50,0,4.47,clear sky,0.0,0.0
481,Hitoyoshi,JP,2020-04-18 19:44:12,32.22,130.75,53.01,76,80,2.84,broken clouds,0.0,0.0
482,Kupang,ID,2020-04-18 19:44:12,-10.17,123.58,79.21,75,23,10.65,few clouds,0.0,0.0
483,Milverton,CA,2020-04-18 19:44:13,43.57,-80.92,46.99,59,84,20.0,broken clouds,0.0,0.0
484,Sinnamary,GF,2020-04-18 19:44:13,5.38,-52.95,81.12,82,34,10.16,light rain,0.5,0.0
485,Raudeberg,NO,2020-04-18 19:44:13,61.99,5.14,46.4,65,0,8.05,clear sky,0.0,0.0
486,Virginia Beach,US,2020-04-18 19:40:00,36.85,-75.98,60.01,72,35,3.0,light rain,0.0,0.0
487,Tres Arroyos,AR,2020-04-18 19:44:14,-38.37,-60.28,71.42,38,0,14.43,clear sky,0.0,0.0
488,Arona,ES,2020-04-18 19:44:14,28.1,-16.68,69.8,52,20,4.7,few clouds,0.0,0.0
489,Nenjiang,CN,2020-04-18 19:44:14,49.18,125.22,56.86,30,100,19.3,overcast clouds,0.0,0.0
490,Binga,ZW,2020-04-18 19:44:15,-17.62,27.34,76.87,50,43,4.9,scattered clouds,0.0,0.0
491,Olinda,BR,2020-04-18 19:40:43,-8.01,-34.86,86.0,70,40,8.05,scattered clouds,0.0,0.0
492,Simpang,ID,2020-04-18 19:44:15,-1.27,104.08,78.15,86,77,2.62,broken clouds,0.0,0.0
493,Mount Isa,AU,2020-04-18 19:44:15,-20.73,139.5,71.6,30,0,11.41,clear sky,0.0,0.0
494,Kouroussa,GN,2020-04-18 19:44:16,10.65,-9.88,89.71,25,98,3.62,overcast clouds,0.0,0.0
495,Menongue,AO,2020-04-18 19:44:16,-14.66,17.69,63.7,60,92,4.14,overcast clouds,0.0,0.0
496,Lufilufi,WS,2020-04-18 19:41:08,-13.87,-171.6,84.06,78,69,17.22,moderate rain,3.11,0.0
497,Honningsvag,NO,2020-04-18 19:44:16,70.98,25.97,37.92,84,100,5.14,overcast clouds,0.0,0.0
498,Joinville,BR,2020-04-18 19:44:17,-26.3,-48.85,75.99,63,30,4.38,light rain,0.16,0.0
499,Fergus Falls,US,2020-04-18 19:44:17,46.28,-96.08,55.4,43,75,18.34,broken clouds,0.0,0.0
500,Mikhaylovka,RU,2020-04-18 19:44:17,50.06,43.24,39.2,69,0,5.97,clear sky,0.0,0.0
501,Japura,ID,2020-04-18 19:44:17,-0.32,102.35,74.03,93,59,1.43,broken clouds,0.0,0.0
502,Paramonga,PE,2020-04-18 19:44:18,-10.67,-77.83,74.71,69,49,10.2,scattered clouds,0.0,0.0
503,Kodinsk,RU,2020-04-18 19:44:18,58.69,99.18,21.27,93,0,3.49,clear sky,0.0,0.0
504,Tulun,RU,2020-04-18 19:44:18,54.56,100.58,26.4,91,40,5.14,scattered clouds,0.0,0.0
505,Luau,AO,2020-04-18 19:44:18,-10.71,22.22,67.77,67,99,1.36,light rain,1.77,0.0
506,Wakkanai,JP,2020-04-18 19:44:19,45.41,141.67,41.18,75,71,10.69,broken clouds,0.0,0.0
507,Lompoc,US,2020-04-18 19:44:19,34.64,-120.46,62.6,59,75,9.17,broken clouds,0.0,0.0
508,Namatanai,PG,2020-04-18 19:44:19,-3.67,152.43,81.72,77,95,4.21,overcast clouds,0.0,0.0
509,Mutoko,ZW,2020-04-18 19:44:19,-17.4,32.23,61.27,63,0,4.03,clear sky,0.0,0.0
510,Todos Santos,MX,2020-04-18 19:44:20,23.45,-110.22,81.0,69,0,8.99,clear sky,0.0,0.0
511,La Ronge,CA,2020-04-18 19:44:20,55.1,-105.28,28.4,54,75,16.11,broken clouds,0.0,0.0
512,Sawtell,AU,2020-04-18 19:44:20,-30.38,153.1,61.0,93,75,4.7,broken clouds,0.0,0.0
513,Krasnyy Chikoy,RU,2020-04-18 19:44:20,50.36,108.75,28.9,68,74,9.73,broken clouds,0.0,0.0
514,Siniscola,IT,2020-04-18 19:44:21,40.57,9.69,60.8,87,64,3.36,broken clouds,0.0,0.0
515,Yeppoon,AU,2020-04-18 19:44:21,-23.13,150.73,73.4,83,90,4.7,overcast clouds,0.0,0.0
516,Porterville,US,2020-04-18 19:42:46,36.07,-119.02,59.0,93,90,9.17,overcast clouds,0.0,0.0
517,Isangel,VU,2020-04-18 19:41:29,-19.55,169.27,79.41,81,96,11.79,light rain,0.11,0.0
518,Outjo,NA,2020-04-18 19:44:22,-20.12,16.15,68.0,56,54,1.12,broken clouds,0.0,0.0
519,Pontes E Lacerda,BR,2020-04-18 19:42:05,-15.23,-59.34,77.63,73,95,3.67,overcast clouds,0.0,0.0
520,Pilar,BR,2020-04-18 19:44:22,-9.6,-35.96,82.4,83,75,12.75,thunderstorm,0.0,0.0
521,Fukue,JP,2020-04-18 19:44:22,32.69,128.84,59.76,70,96,15.21,overcast clouds,0.0,0.0
522,Kurilsk,RU,2020-04-18 19:44:23,45.23,147.88,37.27,76,61,1.28,broken clouds,0.0,0.0
523,Ayan,RU,2020-04-18 19:44:23,56.45,138.17,13.6,84,95,10.85,overcast clouds,0.0,0.0
524,Pishin,PK,2020-04-18 19:44:23,30.58,67.0,57.65,33,68,2.15,broken clouds,0.0,0.0
525,Saint Anthony,US,2020-04-18 19:44:23,45.02,-93.22,64.99,31,20,19.46,few clouds,0.0,0.0
526,Morristown,US,2020-04-18 19:41:26,36.21,-83.29,55.0,57,1,8.05,clear sky,0.0,0.0
527,Pochutla,MX,2020-04-18 19:44:24,15.74,-96.47,91.99,52,20,11.41,few clouds,0.0,0.0
528,Wajima,JP,2020-04-18 19:44:24,37.4,136.9,50.63,85,99,16.06,light rain,0.29,0.0
529,Saint-Louis,SN,2020-04-18 19:41:42,16.33,-15.0,74.55,43,20,14.99,few clouds,0.0,0.0
530,Payson,US,2020-04-18 19:44:24,40.04,-111.73,57.0,43,75,4.7,broken clouds,0.0,0.0
531,Uvat,RU,2020-04-18 19:44:24,59.14,68.9,42.89,77,72,9.06,broken clouds,0.0,0.0
532,Owando,CG,2020-04-18 19:44:25,-0.48,15.9,73.45,87,88,1.3,moderate rain,6.64,0.0
533,Phuntsholing,BT,2020-04-18 19:44:25,26.85,89.39,67.89,60,75,5.08,light rain,1.99,0.0
534,Nioro,GM,2020-04-18 19:44:25,13.35,-15.75,82.18,27,74,10.11,broken clouds,0.0,0.0
535,Ewo,CG,2020-04-18 19:44:26,-0.87,14.82,75.97,77,90,4.07,moderate rain,6.48,0.0
536,Vostok,RU,2020-04-18 19:44:26,46.49,135.88,36.91,71,41,3.8,scattered clouds,0.0,0.0
537,Savannah Bight,HN,2020-04-18 19:44:26,16.45,-85.85,81.72,78,0,23.38,clear sky,0.0,0.0
538,Strezhevoy,RU,2020-04-18 19:44:27,60.73,77.59,53.6,50,100,13.42,overcast clouds,0.0,0.0
539,Imeni Poliny Osipenko,RU,2020-04-18 19:40:29,52.42,136.49,27.23,86,100,8.75,overcast clouds,0.0,0.0
540,Tuburan,PH,2020-04-18 19:44:27,6.64,122.27,81.48,69,29,1.81,light rain,0.39,0.0
541,Yerofey Pavlovich,RU,2020-04-18 19:44:28,53.97,121.97,17.8,88,100,11.01,light snow,0.0,0.52
542,Juneau,US,2020-04-18 19:44:28,58.3,-134.42,48.2,66,20,6.93,few clouds,0.0,0.0
543,Mpika,ZM,2020-04-18 19:44:28,-11.83,31.45,61.97,62,20,8.68,light rain,0.34,0.0
544,Raymondville,US,2020-04-18 19:44:28,26.48,-97.78,75.2,83,90,19.46,overcast clouds,0.0,0.0
545,Gimli,CA,2020-04-18 19:44:28,50.63,-96.99,36.0,76,92,8.01,overcast clouds,0.0,0.0
546,Aksu,CN,2020-04-18 19:44:29,41.12,80.26,56.35,40,94,3.04,overcast clouds,0.0,0.0
547,Yala,TH,2020-04-18 19:44:29,6.33,101.25,74.75,90,98,1.57,overcast clouds,0.0,0.0
548,Kiama,AU,2020-04-18 19:44:29,-34.68,150.87,53.01,100,70,8.05,light rain,0.7,0.0
549,Anloga,GH,2020-04-18 19:44:29,5.79,0.9,84.2,83,20,14.99,few clouds,0.0,0.0
550,Jamkhed,IN,2020-04-18 19:44:30,18.74,75.31,83.3,26,33,6.4,scattered clouds,0.0,0.0
551,Launceston,AU,2020-04-18 19:40:41,-41.45,147.17,39.99,80,65,3.36,broken clouds,0.0,0.0
552,San Lawrenz,MT,2020-04-18 19:44:30,36.06,14.2,63.0,93,88,3.36,overcast clouds,0.0,0.0
553,Mitu,CO,2020-04-18 19:44:30,1.2,-70.17,75.42,81,99,4.12,light rain,0.14,0.0
554,Rajgarh,IN,2020-04-18 19:44:30,28.63,75.38,79.57,35,74,4.81,broken clouds,0.0,0.0
555,Mizdah,LY,2020-04-18 19:40:46,31.45,12.98,70.41,26,0,14.5,clear sky,0.0,0.0
