City_ID,City,Country,Date,Lat,Lng,Max Temp,Humidity,Cloudiness,Wind Speed,Current Description,Rain inches (last 3 hrs),Snow inches (last 3 hrs)
0,Yellowknife,CA,2020-04-15 22:30:17,62.46,-114.35,30.99,63,20,2.24,few clouds,0.0,0
1,Arraial Do Cabo,BR,2020-04-15 22:32:18,-22.97,-42.03,77.0,88,40,5.82,scattered clouds,0.0,0
2,Longyearbyen,SJ,2020-04-15 22:32:18,78.22,15.64,33.8,74,40,27.51,scattered clouds,0.0,0
3,Hermanus,ZA,2020-04-15 22:29:14,-34.42,19.23,60.01,76,56,1.99,broken clouds,0.0,0
4,Bagdarin,RU,2020-04-15 22:32:19,54.43,113.6,41.77,42,35,1.45,scattered clouds,0.0,0
5,Thompson,CA,2020-04-15 22:32:19,55.74,-97.86,26.6,42,40,10.29,scattered clouds,0.0,0
6,Tuktoyaktuk,CA,2020-04-15 22:32:19,69.45,-133.04,30.2,80,75,2.24,broken clouds,0.0,0
7,Punta Arenas,CL,2020-04-15 22:32:19,-53.15,-70.92,50.0,87,95,6.93,overcast clouds,0.0,0
8,Yinchuan,CN,2020-04-15 22:28:28,38.47,106.27,45.0,14,19,3.0,few clouds,0.0,0
9,Tessalit,ML,2020-04-15 22:32:20,20.2,1.01,83.61,19,100,11.86,overcast clouds,0.0,0
10,Saldanha,ZA,2020-04-15 22:32:20,-33.01,17.94,60.8,82,25,6.93,scattered clouds,0.0,0
11,Port Alfred,ZA,2020-04-15 22:30:10,-33.59,26.89,60.01,91,33,3.0,scattered clouds,0.0,0
12,Bengkulu,ID,2020-04-15 22:32:20,-3.8,102.27,78.49,81,87,4.38,light rain,0.0,0
13,Vila Do Maio,CV,2020-04-15 22:28:29,15.13,-23.22,73.4,69,20,13.87,few clouds,0.0,0
14,Mataura,NZ,2020-04-15 22:32:21,-46.19,168.86,51.01,74,50,15.99,light rain,0.0,0
15,Harper,LR,2020-04-15 22:32:21,4.38,-7.72,80.98,82,100,3.13,overcast clouds,0.0,0
16,That Phanom,TH,2020-04-15 22:32:21,16.94,104.71,82.0,78,98,5.46,overcast clouds,0.0,0
17,Hobart,AU,2020-04-15 22:30:02,-42.88,147.33,60.8,72,40,11.41,scattered clouds,0.0,0
18,Asau,RO,2020-04-15 22:32:22,46.43,26.4,46.4,68,6,1.12,clear sky,0.0,0
19,Southbridge,US,2020-04-15 22:32:17,42.08,-72.03,48.99,26,1,16.11,clear sky,0.0,0
20,Madang,PG,2020-04-15 22:32:22,-5.22,145.8,82.87,74,76,1.83,light rain,0.0,0
21,Zhuhai,CN,2020-04-15 22:32:22,22.28,113.57,71.01,100,20,4.05,few clouds,0.0,0
22,Farafangana,MG,2020-04-15 22:32:22,-22.82,47.83,75.06,86,33,12.24,moderate rain,0.0,0
23,Shimoda,JP,2020-04-15 22:32:23,34.67,138.95,50.0,75,77,5.01,broken clouds,0.0,0
24,Port Lincoln,AU,2020-04-15 22:32:23,-34.73,135.87,63.57,66,21,16.71,light rain,0.0,0
25,Puerto Escondido,MX,2020-04-15 22:32:23,15.85,-97.07,80.6,74,5,6.93,clear sky,0.0,0
26,Ereymentau,KZ,2020-04-15 22:28:31,51.62,73.1,42.3,56,45,15.88,scattered clouds,0.0,0
27,Pangkalanbuun,ID,2020-04-15 22:29:35,-2.68,111.62,76.17,88,23,1.39,light rain,0.0,0
28,Nuuk,GL,2020-04-15 22:32:24,64.18,-51.72,30.2,92,98,19.46,light snow,0.0,0
29,Keetmanshoop,NA,2020-04-15 22:32:24,-26.58,18.13,66.2,20,0,4.7,clear sky,0.0,0
30,Mendeleyevo,RU,2020-04-15 22:32:24,56.03,37.22,35.6,100,90,11.18,light snow,0.0,0
31,Kodinsk,RU,2020-04-15 22:28:32,58.69,99.18,37.31,81,95,2.86,overcast clouds,0.0,0
32,Fortuna,US,2020-04-15 22:28:33,40.6,-124.16,62.01,76,1,13.87,clear sky,0.0,0
33,Victoria,HK,2020-04-15 22:27:59,22.29,114.16,71.01,77,20,3.36,few clouds,0.0,0
34,Saskylakh,RU,2020-04-15 22:32:25,71.92,114.08,-2.7,91,99,6.55,overcast clouds,0.0,0
35,Deputatskiy,RU,2020-04-15 22:32:25,69.3,139.9,-3.35,85,100,8.61,light snow,0.0,0
36,Lebu,CL,2020-04-15 22:32:25,-37.62,-73.65,55.44,81,98,7.49,light rain,0.0,0
37,Severo-Kurilsk,RU,2020-04-15 22:32:26,50.68,156.12,32.85,92,100,14.7,overcast clouds,0.0,0
38,Pevek,RU,2020-04-15 22:32:26,69.7,170.31,10.85,93,100,2.39,overcast clouds,0.0,0
39,Bredasdorp,ZA,2020-04-15 22:32:26,-34.53,20.04,57.2,87,63,2.24,broken clouds,0.0,0
40,Bodaybo,RU,2020-04-15 22:32:07,57.85,114.19,39.2,63,0,2.19,clear sky,0.0,0
41,Ushuaia,AR,2020-04-15 22:28:34,-54.8,-68.3,51.8,66,48,2.51,scattered clouds,0.0,0
42,Albany,US,2020-04-15 22:32:26,42.6,-73.97,46.99,31,40,9.17,scattered clouds,0.0,0
43,Atuona,PF,2020-04-15 22:28:35,-9.8,-139.03,82.74,75,69,12.17,light rain,0.0,0
44,Bhimunipatnam,IN,2020-04-15 22:32:27,17.88,83.43,80.6,88,1,6.93,mist,0.0,0
45,Eureka,US,2020-04-15 22:28:13,40.8,-124.16,60.01,71,1,21.92,clear sky,0.0,0
46,Dikson,RU,2020-04-15 22:28:35,73.51,80.55,4.42,82,62,5.41,broken clouds,0.0,0
47,Mahenge,TZ,2020-04-15 22:32:27,-8.68,36.72,63.52,85,95,1.36,light rain,0.0,0
48,Rikitea,PF,2020-04-15 22:28:36,-23.12,-134.97,76.35,72,99,4.61,light rain,0.0,0
49,Ialibu,PG,2020-04-15 22:32:28,-6.28,143.99,60.8,93,75,4.7,fog,0.0,0
50,Amapa,BR,2020-04-15 22:32:28,1.0,-52.0,75.02,80,39,1.5,scattered clouds,0.0,0
51,Jamestown,US,2020-04-15 22:30:29,42.1,-79.24,42.01,92,90,9.17,light snow,0.0,0
52,Husavik,IS,2020-04-15 22:28:37,66.04,-17.34,33.8,74,75,9.17,broken clouds,0.0,0
53,Ocampo,MX,2020-04-15 22:32:29,21.65,-101.5,78.06,7,52,17.9,broken clouds,0.0,0
54,Bluff,NZ,2020-04-15 22:32:29,-46.6,168.33,51.01,74,70,15.99,broken clouds,0.0,0
55,Saint George,US,2020-04-15 22:30:20,37.1,-113.58,70.0,14,1,14.99,clear sky,0.0,0
56,New Norfolk,AU,2020-04-15 22:32:30,-42.78,147.06,60.8,72,40,11.41,light rain,0.76,0
57,Provideniya,RU,2020-04-15 22:32:30,64.38,-173.3,30.2,80,90,13.42,overcast clouds,0.0,0
58,Faya,SA,2020-04-15 22:32:30,18.39,42.45,60.8,87,20,5.82,few clouds,0.0,0
59,Waipawa,NZ,2020-04-15 22:28:38,-41.41,175.52,60.8,63,53,12.75,broken clouds,0.0,0
60,Kavieng,PG,2020-04-15 22:28:38,-2.57,150.8,82.4,71,100,1.1,overcast clouds,0.0,0
61,San Pedro,PH,2020-04-15 22:32:31,14.35,121.02,80.6,78,20,1.12,few clouds,0.0,0
62,Kenai,US,2020-04-15 22:32:31,60.55,-151.26,44.01,86,90,5.82,light rain,0.76,0
63,Ewa Beach,US,2020-04-15 22:31:25,21.32,-158.01,82.4,65,40,9.17,scattered clouds,0.0,0
64,Aklavik,CA,2020-04-15 22:32:31,68.22,-135.01,42.8,60,75,5.82,broken clouds,0.0,0
65,Itaituba,BR,2020-04-15 22:32:32,-4.28,-55.98,77.0,94,75,2.24,broken clouds,0.0,0
66,Tiksi,RU,2020-04-15 22:32:32,71.69,128.87,-3.53,91,100,9.84,overcast clouds,0.0,0
67,Nekrasovskoye,RU,2020-04-15 22:32:32,57.68,40.37,28.4,92,63,8.95,broken clouds,0.0,0
68,Fort Morgan,US,2020-04-15 22:32:32,40.25,-103.8,52.0,52,90,20.8,overcast clouds,0.0,0
69,Geraldton,AU,2020-04-15 22:32:32,-28.77,114.6,55.4,87,0,6.93,clear sky,0.0,0
70,Hambantota,LK,2020-04-15 22:32:33,6.12,81.12,80.11,79,56,6.38,broken clouds,0.0,0
71,Butaritari,KI,2020-04-15 22:32:33,3.07,172.79,83.34,79,93,17.83,light rain,0.0,0
72,East London,ZA,2020-04-15 22:32:33,-33.02,27.91,63.73,76,20,10.67,few clouds,0.0,0
73,Seymchan,RU,2020-04-15 22:28:41,62.88,152.43,11.14,90,76,0.27,broken clouds,0.0,0
74,Aktau,KZ,2020-04-15 22:32:33,43.65,51.2,46.4,70,10,11.18,clear sky,0.0,0
75,Kapaa,US,2020-04-15 22:32:34,22.08,-159.32,80.6,74,20,11.41,few clouds,0.0,0
76,Cape Town,ZA,2020-04-15 22:32:08,-33.93,18.42,60.01,82,20,3.36,few clouds,0.0,0
77,Chokurdakh,RU,2020-04-15 22:32:34,70.63,147.92,-1.77,91,100,8.34,overcast clouds,0.0,0
78,Clyde River,CA,2020-04-15 22:32:34,70.47,-68.59,6.8,84,75,19.46,broken clouds,0.0,0
79,Lagoa,PT,2020-04-15 22:28:42,39.05,-27.98,56.66,69,0,22.57,clear sky,0.0,0
80,Karratha,AU,2020-04-15 22:28:43,-20.74,116.85,81.41,71,82,8.43,broken clouds,0.0,0
81,Chase,CA,2020-04-15 22:28:43,50.82,-119.69,59.0,24,75,9.17,broken clouds,0.0,0
82,Cartagena,CO,2020-04-15 22:29:53,10.4,-75.51,86.0,70,40,9.17,scattered clouds,0.0,0
83,Virginia Beach,US,2020-04-15 22:28:34,36.85,-75.98,54.0,49,20,6.93,few clouds,0.0,0
84,Khatanga,RU,2020-04-15 22:28:43,71.97,102.5,-9.6,89,0,6.35,clear sky,0.0,0
85,Vaini,TO,2020-04-15 22:32:36,-21.2,-175.2,80.6,74,75,8.05,broken clouds,0.0,0
86,Terenos,BR,2020-04-15 22:32:36,-20.44,-54.86,64.4,52,0,5.82,clear sky,0.0,0
87,Loandjili,CG,2020-04-15 22:28:44,-4.76,11.86,81.39,89,100,7.38,light rain,0.0,0
88,Kahului,US,2020-04-15 22:30:05,20.89,-156.47,79.0,69,40,14.99,scattered clouds,0.0,0
89,Nova Era,BR,2020-04-15 22:32:37,-19.75,-43.04,67.77,77,100,2.37,light rain,0.0,0
90,Bud,US,2020-04-15 22:32:37,39.45,-86.18,46.0,48,75,9.17,broken clouds,0.0,0
91,Kiunga,PG,2020-04-15 22:28:45,-6.12,141.29,73.62,97,100,2.08,light rain,0.0,0
92,Dixon,US,2020-04-15 22:32:38,38.45,-121.82,84.99,27,1,4.16,clear sky,0.0,0
93,Sitka,US,2020-04-15 22:28:37,57.05,-135.33,46.4,93,90,3.36,light rain,0.76,0
94,Najran,SA,2020-04-15 22:32:38,17.49,44.13,73.4,64,1,4.7,clear sky,0.0,0
95,Georgetown,MY,2020-04-15 22:32:38,5.41,100.34,78.8,94,40,2.24,scattered clouds,0.0,0
96,Whitehorse,CA,2020-04-15 22:31:42,60.72,-135.05,51.8,62,75,4.7,broken clouds,0.0,0
97,Ribeira Grande,PT,2020-04-15 22:32:39,38.52,-28.7,55.74,70,53,21.07,light rain,0.0,0
98,Lasa,IT,2020-04-15 22:32:39,46.62,10.7,39.99,69,5,4.23,clear sky,0.0,0
99,Ancud,CL,2020-04-15 22:32:39,-41.87,-73.82,51.8,100,90,17.22,light rain,0.0,0
100,Busselton,AU,2020-04-15 22:32:39,-33.65,115.33,55.0,66,79,7.27,broken clouds,0.0,0
101,Port Hedland,AU,2020-04-15 22:32:39,-20.32,118.57,77.0,94,98,5.82,overcast clouds,0.0,0
102,West Bay,KY,2020-04-15 22:32:40,19.37,-81.42,86.0,74,20,10.29,few clouds,0.0,0
103,Upernavik,GL,2020-04-15 22:32:40,72.79,-56.15,15.64,89,61,7.18,broken clouds,0.0,0
104,Bethel,US,2020-04-15 22:32:40,41.37,-73.41,53.01,24,1,10.29,clear sky,0.0,0
105,Cidreira,BR,2020-04-15 22:32:40,-30.18,-50.21,66.99,56,59,20.49,broken clouds,0.0,0
106,Tommot,RU,2020-04-15 22:32:40,58.96,126.29,29.7,86,100,3.47,light snow,0.0,0
107,Tual,ID,2020-04-15 22:32:41,-5.67,132.75,83.08,73,53,2.68,moderate rain,0.0,0
108,Camacha,PT,2020-04-15 22:28:48,33.08,-16.33,62.6,72,20,14.99,few clouds,0.0,0
109,Horsens,DK,2020-04-15 22:32:41,55.86,9.85,44.6,93,11,13.87,few clouds,0.0,0
110,Bathsheba,BB,2020-04-15 22:32:41,13.22,-59.52,80.6,69,40,16.11,scattered clouds,0.0,0
111,Kaoma,ZM,2020-04-15 22:28:49,-14.78,24.8,65.88,63,54,1.95,broken clouds,0.0,0
112,Kerchevskiy,RU,2020-04-15 22:32:42,59.95,56.29,39.34,91,100,12.08,light rain,0.0,0
113,Qaanaaq,GL,2020-04-15 22:32:42,77.48,-69.36,6.57,88,56,1.9,broken clouds,0.0,0
114,Itarema,BR,2020-04-15 22:28:50,-2.92,-39.92,78.87,84,100,3.51,light rain,0.0,0
115,Montepuez,MZ,2020-04-15 22:32:42,-13.13,39.0,67.86,86,21,3.56,few clouds,0.0,0
116,Bahia Blanca,AR,2020-04-15 22:28:50,-38.72,-62.27,65.41,42,82,7.11,broken clouds,0.0,0
117,Vao,NC,2020-04-15 22:32:43,-22.67,167.48,74.57,74,64,15.95,broken clouds,0.0,0
118,Talagang,PK,2020-04-15 22:32:43,32.93,72.42,69.13,54,75,3.2,broken clouds,0.0,0
119,Naze,JP,2020-04-15 22:32:43,28.37,129.48,66.2,67,40,8.05,scattered clouds,0.0,0
120,Hilo,US,2020-04-15 22:32:44,19.73,-155.09,82.4,54,75,10.29,broken clouds,0.0,0
121,Hithadhoo,MV,2020-04-15 22:32:44,-0.6,73.08,84.18,73,88,9.86,moderate rain,0.0,0
122,Carnarvon,AU,2020-04-15 22:32:44,-24.87,113.63,75.2,53,90,12.75,overcast clouds,0.0,0
123,Faanui,PF,2020-04-15 22:32:44,-16.48,-151.75,83.52,66,50,8.77,scattered clouds,0.0,0
124,Ponta Do Sol,PT,2020-04-15 22:32:44,32.67,-17.1,60.8,72,40,5.82,scattered clouds,0.0,0
125,Avarua,CK,2020-04-15 22:32:45,-21.21,-159.78,82.4,65,85,10.29,overcast clouds,0.0,0
126,South Venice,US,2020-04-15 22:32:45,27.05,-82.42,87.01,88,1,11.41,haze,0.0,0
127,Torbay,CA,2020-04-15 22:32:45,47.67,-52.73,37.99,100,90,13.87,moderate rain,1.36,0
128,Aracruz,BR,2020-04-15 22:32:45,-19.82,-40.27,80.6,83,99,9.17,overcast clouds,0.0,0
129,Port Elizabeth,ZA,2020-04-15 22:32:09,-33.92,25.57,55.4,93,82,2.24,broken clouds,0.0,0
130,Barrow,US,2020-04-15 22:32:46,71.29,-156.79,21.2,85,90,17.22,overcast clouds,0.0,0
131,Airai,TL,2020-04-15 22:32:46,-8.93,125.41,62.73,76,100,1.86,light rain,0.0,0
132,Pisco,PE,2020-04-15 22:32:46,-13.7,-76.22,73.0,30,0,17.22,clear sky,0.0,0
133,Mar Del Plata,AR,2020-04-15 22:29:18,-38.0,-57.56,59.0,71,20,6.93,few clouds,0.0,0
134,Petropavlovsk-Kamchatskiy,RU,2020-04-15 22:32:46,53.05,158.65,33.8,59,100,2.24,overcast clouds,0.0,0
135,Talnakh,RU,2020-04-15 22:32:47,69.49,88.4,14.0,51,0,13.42,clear sky,0.0,0
136,Cartagena Del Chaira,CO,2020-04-15 22:32:47,1.33,-74.84,80.62,64,62,2.46,broken clouds,0.0,0
137,Vestmannaeyjar,IS,2020-04-15 22:32:47,63.44,-20.27,39.29,74,82,11.05,broken clouds,0.0,0
138,Yashan,CN,2020-04-15 22:32:47,22.2,109.94,68.0,85,100,4.76,overcast clouds,0.0,0
139,Marzuq,YE,2020-04-15 22:32:48,14.4,46.47,73.35,50,72,1.43,light rain,0.0,0
140,Bambanglipuro,ID,2020-04-15 22:32:48,-7.95,110.28,80.37,78,45,3.27,scattered clouds,0.0,0
141,Hofn,IS,2020-04-15 22:32:48,64.25,-15.21,35.42,79,36,10.07,scattered clouds,0.0,0
142,Luderitz,NA,2020-04-15 22:32:48,-26.65,15.16,57.2,82,0,14.99,clear sky,0.0,0
143,Adrar,MR,2020-04-15 22:32:48,20.5,-10.07,81.54,35,9,11.07,clear sky,0.0,0
144,Liverpool,GB,2020-04-15 22:32:49,53.41,-2.98,51.01,70,19,2.24,few clouds,0.0,0
145,Takoradi,GH,2020-04-15 22:32:49,4.88,-1.76,82.08,83,99,4.74,light rain,0.0,0
146,Kungurtug,RU,2020-04-15 22:32:49,50.6,97.52,38.7,42,43,1.39,scattered clouds,0.0,0
147,Prescott,US,2020-04-15 22:30:25,34.54,-112.47,69.01,16,1,6.93,clear sky,0.0,0
148,Egvekinot,RU,2020-04-15 22:32:49,66.32,-179.17,23.23,92,94,6.67,overcast clouds,0.0,0
149,Ayan,RU,2020-04-15 22:32:50,56.45,138.17,38.52,72,47,8.43,scattered clouds,0.0,0
150,Souillac,MU,2020-04-15 22:32:50,-20.52,57.52,77.0,83,40,12.75,scattered clouds,0.0,0
151,Xingcheng,CN,2020-04-15 22:28:57,40.62,120.72,46.63,84,98,8.84,overcast clouds,0.0,0
152,Cherskiy,RU,2020-04-15 22:32:50,68.75,161.3,7.99,92,89,4.23,overcast clouds,0.0,0
153,Portland,US,2020-04-15 22:32:20,45.52,-122.68,66.99,51,75,10.29,broken clouds,0.0,0
154,Katsuura,JP,2020-04-15 22:32:51,35.13,140.3,55.0,81,75,16.11,broken clouds,0.0,0
155,Pavlodar,KZ,2020-04-15 22:32:51,52.3,76.95,41.0,71,63,4.47,broken clouds,0.0,0
156,Saint-Philippe,RE,2020-04-15 22:32:51,-21.36,55.77,75.2,64,75,8.05,broken clouds,0.0,0
157,Pareora,NZ,2020-04-15 22:32:51,-44.49,171.21,56.98,51,29,7.18,scattered clouds,0.0,0
158,Te Anau,NZ,2020-04-15 22:32:52,-45.42,167.72,52.36,57,44,8.41,scattered clouds,0.0,0
159,Bambous Virieux,MU,2020-04-15 22:32:52,-20.34,57.76,77.0,83,40,12.75,scattered clouds,0.0,0
160,Male,MV,2020-04-15 22:28:59,4.17,73.51,84.2,83,40,3.36,thunderstorm,0.0,0
161,Nome,US,2020-04-15 22:32:53,64.5,-165.41,36.0,93,90,3.36,light rain,0.25,0
162,Nhulunbuy,AU,2020-04-15 22:32:53,-12.23,136.77,78.8,88,93,4.7,overcast clouds,0.0,0
163,Japura,ID,2020-04-15 22:29:00,-0.32,102.35,73.85,96,99,0.92,overcast clouds,0.0,0
164,Rensvik,NO,2020-04-15 22:32:53,63.1,7.82,41.0,71,83,23.04,light snow,0.0,0
165,Cap Malheureux,MU,2020-04-15 22:32:53,-19.98,57.61,77.0,83,40,12.75,scattered clouds,0.0,0
166,Yulara,AU,2020-04-15 22:32:54,-25.24,130.99,66.2,25,59,9.17,broken clouds,0.0,0
167,Cayenne,GF,2020-04-15 22:32:54,4.93,-52.33,80.6,74,0,3.36,clear sky,0.0,0
168,Clonakilty,IE,2020-04-15 22:32:54,51.62,-8.87,46.4,65,20,8.05,few clouds,0.0,0
169,Lima,PE,2020-04-15 22:31:16,-12.04,-77.03,78.8,57,0,10.29,clear sky,0.0,0
170,Staraya Russa,RU,2020-04-15 22:32:55,57.99,31.36,34.36,91,91,6.26,light snow,0.0,0
171,Salalah,OM,2020-04-15 22:32:55,17.02,54.09,82.4,74,20,8.05,few clouds,0.0,0
172,Inhambane,MZ,2020-04-15 22:29:02,-23.86,35.38,76.93,88,1,9.17,clear sky,0.0,0
173,Hamamatsu,JP,2020-04-15 22:32:55,34.7,137.73,60.01,44,95,8.01,overcast clouds,0.0,0
174,Esperance,AU,2020-04-15 22:29:02,-33.87,121.9,57.2,87,90,6.93,overcast clouds,0.0,0
175,Shache,CN,2020-04-15 22:32:56,38.42,77.24,60.55,23,100,13.71,overcast clouds,0.0,0
176,Kavaratti,IN,2020-04-15 22:32:56,10.57,72.64,83.57,69,91,2.19,overcast clouds,0.0,0
177,Concordia,AR,2020-04-15 22:30:48,-31.39,-58.02,68.0,45,0,8.05,clear sky,0.0,0
178,Serabu,SL,2020-04-15 22:32:56,7.8,-12.05,78.31,88,93,1.77,light rain,0.0,0
179,Waddan,LY,2020-04-15 22:32:56,29.16,16.14,78.04,26,96,3.94,overcast clouds,0.0,0
180,Norman Wells,CA,2020-04-15 22:32:57,65.28,-126.83,42.8,48,75,9.17,broken clouds,0.0,0
181,Hualmay,PE,2020-04-15 22:32:57,-11.1,-77.61,73.04,73,7,6.31,clear sky,0.0,0
182,Aquiraz,BR,2020-04-15 22:32:57,-3.9,-38.39,82.4,78,40,4.7,scattered clouds,0.0,0
183,Lewisporte,CA,2020-04-15 22:32:57,49.25,-55.05,36.0,96,90,10.29,overcast clouds,0.0,0
184,Pierre,US,2020-04-15 22:29:15,44.37,-100.35,42.01,75,90,16.11,light rain,0.0,0
185,Tasiilaq,GL,2020-04-15 22:32:58,65.61,-37.64,28.4,86,95,3.36,overcast clouds,0.0,0
186,Conceicao Das Alagoas,BR,2020-04-15 22:32:58,-19.91,-48.39,69.8,77,100,6.93,light rain,0.0,0
187,Aktash,RU,2020-04-15 22:32:58,50.3,87.73,24.35,48,55,3.76,light snow,0.0,0
188,Myitkyina,MM,2020-04-15 22:32:58,25.38,97.4,68.04,72,45,2.01,light rain,0.0,0
189,Aykhal,RU,2020-04-15 22:32:58,66.0,111.5,5.0,71,23,6.71,few clouds,0.0,0
190,Nemuro,JP,2020-04-15 22:29:06,43.32,145.57,31.66,92,80,15.95,broken clouds,0.0,0
191,Arman,RU,2020-04-15 22:32:05,59.7,150.17,22.64,94,85,6.04,overcast clouds,0.0,0
192,Avera,US,2020-04-15 22:32:59,33.19,-82.53,71.6,37,1,6.93,clear sky,0.0,0
193,Richards Bay,ZA,2020-04-15 22:32:59,-28.78,32.04,70.03,78,97,3.18,light rain,0.0,0
194,Srednekolymsk,RU,2020-04-15 22:33:00,67.45,153.68,4.62,93,58,12.86,broken clouds,0.0,0
195,Plouzane,FR,2020-04-15 22:33:00,48.38,-4.62,57.2,58,57,8.05,broken clouds,0.0,0
196,Siraha,NP,2020-04-15 22:29:07,26.65,86.21,79.12,46,61,6.8,broken clouds,0.0,0
197,Roseburg,US,2020-04-15 22:33:00,43.22,-123.34,66.99,48,1,8.05,clear sky,0.0,0
198,Matamoros,MX,2020-04-15 22:31:37,25.53,-103.25,86.0,19,75,10.29,broken clouds,0.0,0
199,Tara,RU,2020-04-15 22:33:01,56.89,74.37,31.59,96,2,5.66,clear sky,0.0,0
200,Sorland,NO,2020-04-15 22:33:01,67.67,12.69,36.1,77,70,13.24,light snow,0.0,0
201,Tautira,PF,2020-04-15 22:33:01,-17.73,-149.15,89.6,66,21,10.29,few clouds,0.0,0
202,Tuatapere,NZ,2020-04-15 22:33:01,-46.13,167.68,51.01,74,54,15.99,broken clouds,0.0,0
203,San Rafael Del Sur,NI,2020-04-15 22:33:01,11.85,-86.44,96.8,32,20,13.87,smoke,0.0,0
204,Oktyabrskoye,RU,2020-04-15 22:33:02,43.06,44.74,51.8,66,96,8.95,light rain,0.0,0
205,Tabuk,PH,2020-04-15 22:33:02,17.42,121.44,77.22,77,85,5.61,light rain,0.0,0
206,Asyut,EG,2020-04-15 22:33:02,27.18,31.18,69.8,40,0,11.41,clear sky,0.0,0
207,Mbandaka,CD,2020-04-15 22:33:02,0.05,18.26,76.8,69,69,0.65,broken clouds,0.0,0
208,Vostok,RU,2020-04-15 22:33:02,46.49,135.88,43.18,42,0,4.0,clear sky,0.0,0
209,Fort Nelson,CA,2020-04-15 22:29:10,58.81,-122.7,51.8,40,20,4.7,few clouds,0.0,0
210,Kruisfontein,ZA,2020-04-15 22:33:03,-34.0,24.73,57.83,80,96,6.04,overcast clouds,0.0,0
211,Mount Gambier,AU,2020-04-15 22:33:03,-37.83,140.77,57.2,93,90,4.7,overcast clouds,0.0,0
212,Jumla,NP,2020-04-15 22:33:03,29.27,82.18,46.58,28,21,1.99,few clouds,0.0,0
213,Bonga,ET,2020-04-15 22:33:04,7.28,36.23,61.34,59,93,1.74,light rain,0.0,0
214,Ojinaga,MX,2020-04-15 22:29:11,29.57,-104.42,77.0,20,1,0.65,clear sky,0.0,0
215,San Cristobal,VE,2020-04-15 22:33:04,7.77,-72.22,87.8,52,20,6.93,haze,0.0,0
216,Pemangkat,ID,2020-04-15 22:33:05,1.17,108.97,79.05,84,100,5.01,light rain,0.0,0
217,Kushmurun,KZ,2020-04-15 22:33:05,52.45,64.63,44.46,67,89,12.64,overcast clouds,0.0,0
218,Alofi,NU,2020-04-15 22:33:05,-19.06,-169.92,84.2,66,75,9.17,broken clouds,0.0,0
219,Bowen,AU,2020-04-15 22:33:05,-20.02,148.23,79.0,78,12,11.41,few clouds,0.0,0
220,Fairbanks,US,2020-04-15 22:30:59,64.84,-147.72,51.8,40,20,4.7,few clouds,0.0,0
221,Pandan,PH,2020-04-15 22:33:06,14.05,124.17,80.98,79,32,6.55,light rain,0.0,0
222,Trairi,BR,2020-04-15 22:29:13,-3.28,-39.27,80.13,79,88,4.7,light rain,0.0,0
223,Cradock,ZA,2020-04-15 22:33:06,-32.16,25.62,52.74,57,57,0.47,broken clouds,0.0,0
224,Haines Junction,CA,2020-04-15 22:33:06,60.75,-137.51,44.01,66,99,6.85,overcast clouds,0.0,0
225,Palmer,US,2020-04-15 22:29:13,42.16,-72.33,50.0,24,40,12.75,scattered clouds,0.0,0
226,Ketchikan,US,2020-04-15 22:33:07,55.34,-131.65,51.8,76,1,20.8,clear sky,0.0,0
227,Komsomolskiy,UZ,2020-04-15 22:33:07,40.43,71.72,48.2,87,43,2.24,scattered clouds,0.0,0
228,Strezhevoy,RU,2020-04-15 22:33:07,60.73,77.59,37.4,93,90,6.71,overcast clouds,0.0,0
229,Guarapari,BR,2020-04-15 22:33:07,-20.67,-40.5,80.6,83,96,9.17,overcast clouds,0.0,0
230,Aripuana,BR,2020-04-15 22:33:08,-9.17,-60.63,74.05,93,83,0.85,light rain,0.0,0
231,Prince Rupert,CA,2020-04-15 22:33:08,54.32,-130.32,50.0,81,1,8.05,clear sky,0.0,0
232,Langham,CA,2020-04-15 22:29:15,52.37,-106.97,30.2,42,75,8.05,broken clouds,0.0,0
233,Repalle,IN,2020-04-15 22:29:15,16.02,80.85,78.62,80,9,5.93,clear sky,0.0,0
234,Ahipara,NZ,2020-04-15 22:33:08,-35.17,173.17,64.63,77,29,18.9,light rain,0.0,0
235,Valence,ES,2020-04-15 22:30:50,39.47,-0.38,60.01,93,40,1.12,scattered clouds,0.0,0
236,Carnduff,CA,2020-04-15 22:33:09,49.17,-101.8,37.0,33,83,10.0,broken clouds,0.0,0
237,Igarka,RU,2020-04-15 22:29:16,67.47,86.58,15.3,94,3,9.33,clear sky,0.0,0
238,Cockburn Town,TC,2020-04-15 22:28:58,21.46,-71.14,79.05,80,0,14.97,clear sky,0.0,0
239,Thongwa,MM,2020-04-15 22:33:09,16.76,96.53,78.8,83,20,5.82,few clouds,0.0,0
240,Ondangwa,NA,2020-04-15 22:33:09,-17.92,15.95,73.4,83,5,2.24,clear sky,0.0,0
241,Sao Jose Da Coroa Grande,BR,2020-04-15 22:33:10,-8.9,-35.15,80.69,82,18,7.56,light rain,0.0,0
242,Teya,RU,2020-04-15 22:29:17,60.38,92.63,36.41,78,31,2.21,scattered clouds,0.0,0
243,Cururupu,BR,2020-04-15 22:33:10,-1.83,-44.87,76.75,90,100,2.77,light rain,0.0,0
244,Sinnamary,GF,2020-04-15 22:33:10,5.38,-52.95,78.75,77,3,9.26,clear sky,0.0,0
245,Columbus,US,2020-04-15 22:28:32,39.96,-83.0,44.6,62,90,27.51,light rain and snow,0.0,0
246,Hasaki,JP,2020-04-15 22:33:11,35.73,140.83,52.0,76,75,19.46,broken clouds,0.0,0
247,Vila Velha,BR,2020-04-15 22:33:11,-20.33,-40.29,80.6,83,99,9.17,overcast clouds,0.0,0
248,Grootfontein,NA,2020-04-15 22:33:11,-19.57,18.12,68.34,34,31,6.93,scattered clouds,0.0,0
249,Fort Wellington,GY,2020-04-15 22:33:12,6.4,-57.6,78.44,77,54,8.93,broken clouds,0.0,0
250,Sao Joao Da Barra,BR,2020-04-15 22:29:19,-21.64,-41.05,78.8,74,96,6.93,overcast clouds,0.0,0
251,Vestmanna,FO,2020-04-15 22:33:12,62.16,-7.17,41.0,65,60,14.99,light rain,0.0,0
252,Montrose,US,2020-04-15 22:33:12,38.42,-108.27,62.6,14,75,11.41,broken clouds,0.0,0
253,Manokwari,ID,2020-04-15 22:33:12,-0.87,134.08,83.62,65,58,0.98,light rain,0.0,0
254,Lanzhou,CN,2020-04-15 22:33:13,36.06,103.79,50.0,35,25,4.47,scattered clouds,0.0,0
255,Dukat,RU,2020-04-15 22:33:13,62.55,155.55,14.56,85,6,2.35,clear sky,0.0,0
256,Tortoli,IT,2020-04-15 22:33:13,39.93,9.66,51.8,76,5,3.36,clear sky,0.0,0
257,Enid,US,2020-04-15 22:33:13,36.4,-97.88,63.0,31,1,13.87,clear sky,0.0,0
258,Mwembe,TZ,2020-04-15 22:33:14,-4.15,37.85,67.01,74,94,4.38,light rain,0.0,0
259,Merauke,ID,2020-04-15 22:33:14,-8.47,140.33,83.28,77,100,8.99,light rain,0.0,0
260,Vysokogornyy,RU,2020-04-15 22:33:14,50.12,139.15,35.04,63,0,4.68,clear sky,0.0,0
261,Marialva,BR,2020-04-15 22:29:21,-23.48,-51.79,66.2,59,0,3.36,clear sky,0.0,0
262,Borogontsy,RU,2020-04-15 22:33:14,62.67,131.17,18.54,84,35,8.3,scattered clouds,0.0,0
263,Namwala,ZM,2020-04-15 22:33:15,-15.75,26.44,66.33,58,81,2.46,broken clouds,0.0,0
264,Beringovskiy,RU,2020-04-15 22:33:15,63.05,179.32,27.03,97,99,10.47,light snow,0.0,0
265,High Level,CA,2020-04-15 22:29:22,58.52,-117.14,37.4,59,20,9.17,few clouds,0.0,0
266,Atambua,ID,2020-04-15 22:33:15,-9.11,124.89,74.68,83,100,1.61,light rain,0.0,0
267,Batangafo,CF,2020-04-15 22:33:16,7.3,18.28,80.98,41,27,3.09,scattered clouds,0.0,0
268,Carndonagh,IE,2020-04-15 22:33:16,55.25,-7.27,43.48,94,48,2.98,scattered clouds,0.0,0
269,Labuhan,ID,2020-04-15 22:29:23,-6.88,112.21,78.42,83,34,3.49,scattered clouds,0.0,0
270,Krasnyy Chikoy,RU,2020-04-15 22:33:16,50.36,108.75,41.88,53,99,1.99,overcast clouds,0.0,0
271,Xuddur,SO,2020-04-15 22:33:16,4.12,43.89,76.8,71,76,9.84,broken clouds,0.0,0
272,Kirakira,SB,2020-04-15 22:33:17,-10.45,161.92,85.84,68,100,7.63,light rain,0.0,0
273,Sovetskaya Gavan,RU,2020-04-15 22:33:17,48.97,140.29,36.61,76,0,3.18,clear sky,0.0,0
274,Mahebourg,MU,2020-04-15 22:33:17,-20.41,57.7,77.0,83,40,12.75,scattered clouds,0.0,0
275,Castro,BR,2020-04-15 22:33:17,-24.79,-50.01,50.99,43,0,0.43,clear sky,0.0,0
276,Markova,UA,2020-04-15 22:33:17,48.68,24.41,38.77,63,70,8.66,broken clouds,0.0,0
277,Manicore,BR,2020-04-15 22:33:18,-5.81,-61.3,82.4,78,42,3.36,light rain,0.0,0
278,Dunedin,NZ,2020-04-15 22:33:18,-45.87,170.5,55.0,63,32,11.01,scattered clouds,0.0,0
279,Hapao,PH,2020-04-15 22:33:18,16.88,121.02,71.15,61,96,2.42,overcast clouds,0.0,0
280,Pangnirtung,CA,2020-04-15 22:33:18,66.15,-65.71,17.6,85,90,10.29,light snow,0.0,0
281,Paracuru,BR,2020-04-15 22:33:19,-3.41,-39.03,82.4,78,40,4.7,scattered clouds,0.0,0
282,Grand Gaube,MU,2020-04-15 22:33:19,-20.01,57.66,77.0,83,40,12.75,scattered clouds,0.0,0
283,Chuy,UY,2020-04-15 22:29:26,-33.7,-53.46,64.24,72,94,20.62,light rain,0.0,0
284,Ngunguru,NZ,2020-04-15 22:29:26,-35.62,174.5,66.0,68,15,4.0,few clouds,0.0,0
285,Bontang,ID,2020-04-15 22:33:19,0.13,117.5,80.55,75,95,5.82,overcast clouds,0.0,0
286,Kendari,ID,2020-04-15 22:33:20,-3.94,122.5,74.34,91,100,1.1,light rain,0.0,0
287,Karimpur,IN,2020-04-15 22:29:27,23.97,88.62,75.67,67,0,8.08,clear sky,0.0,0
288,Rosetta,EG,2020-04-15 22:33:20,31.4,30.42,64.4,77,0,3.36,clear sky,0.0,0
289,Hobyo,SO,2020-04-15 22:33:21,5.35,48.53,83.61,78,53,9.91,broken clouds,0.0,0
290,Vasteras,SE,2020-04-15 22:33:21,59.62,16.55,46.99,65,74,12.75,broken clouds,0.0,0
291,Dongning,CN,2020-04-15 22:33:21,44.06,131.12,45.86,50,0,4.23,clear sky,0.0,0
292,Alencon,FR,2020-04-15 22:33:21,48.43,0.08,55.4,50,12,5.82,few clouds,0.0,0
293,Chumikan,RU,2020-04-15 22:33:22,54.72,135.31,42.85,62,9,7.76,clear sky,0.0,0
294,Isangel,VU,2020-04-15 22:29:29,-19.55,169.27,80.6,83,20,7.83,few clouds,0.0,0
295,Constitucion,CL,2020-04-15 22:33:22,-35.33,-72.42,55.11,74,99,3.44,overcast clouds,0.0,0
296,Puerto Ayora,EC,2020-04-15 22:33:22,-0.74,-90.35,86.0,66,40,16.11,scattered clouds,0.0,0
297,North Platte,US,2020-04-15 22:33:14,41.12,-100.77,55.99,30,40,4.7,scattered clouds,0.0,0
298,Ukiah,US,2020-04-15 22:29:05,39.15,-123.21,80.6,28,1,9.17,clear sky,0.0,0
299,El Paso,US,2020-04-15 22:33:10,31.76,-106.49,73.99,15,20,14.99,few clouds,0.0,0
300,Leshukonskoye,RU,2020-04-15 22:33:23,64.9,45.76,35.6,84,100,13.67,overcast clouds,0.0,0
301,Misratah,LY,2020-04-15 22:33:23,32.38,15.09,62.33,86,97,10.47,overcast clouds,0.0,0
302,Rocha,UY,2020-04-15 22:33:23,-34.48,-54.33,61.05,80,73,16.06,light rain,0.0,0
303,Aldan,RU,2020-04-15 22:33:23,58.6,125.39,29.84,77,99,5.28,snow,0.0,0
304,Darnah,LY,2020-04-15 22:33:24,32.77,22.64,60.19,76,50,22.26,scattered clouds,0.0,0
305,Novyy Urengoy,RU,2020-04-15 22:33:24,66.08,76.63,9.48,89,0,9.86,clear sky,0.0,0
306,Kathmandu,NP,2020-04-15 22:33:24,27.72,85.32,62.6,82,20,3.36,few clouds,0.0,0
307,Qostanay,KZ,2020-04-15 22:33:24,53.17,63.58,44.6,65,83,13.42,broken clouds,0.0,0
308,Mirabad,AF,2020-04-15 22:29:32,30.44,61.84,70.3,29,100,6.08,overcast clouds,0.0,0
309,Svetlyy,RU,2020-04-15 22:29:32,54.67,20.13,46.4,75,43,24.61,scattered clouds,0.0,0
310,Lata,PT,2020-04-15 22:33:25,40.16,-8.33,57.99,82,20,9.17,few clouds,0.0,0
311,Orapa,BW,2020-04-15 22:33:25,-21.28,25.37,72.14,23,18,8.08,few clouds,0.0,0
312,Dolores,AR,2020-04-15 22:33:25,-36.31,-57.68,50.04,78,0,7.11,clear sky,0.0,0
313,Cepu,ID,2020-04-15 22:29:32,-7.15,111.59,75.63,88,33,1.86,scattered clouds,0.0,0
314,Kon Tum,VN,2020-04-15 22:33:26,14.35,108.0,71.2,71,85,1.9,overcast clouds,0.0,0
315,Dingle,PH,2020-04-15 22:33:26,11.0,122.67,82.98,71,88,7.78,overcast clouds,0.0,0
316,Snasa,NO,2020-04-15 22:33:26,64.25,12.38,33.1,91,98,8.57,snow,0.0,0
317,Dobroye,RU,2020-04-15 22:33:27,52.87,39.81,33.8,80,82,11.18,broken clouds,0.0,0
318,Port Augusta,AU,2020-04-15 22:33:27,-32.5,137.77,64.99,77,60,11.41,broken clouds,0.0,0
319,Guerrero Negro,MX,2020-04-15 22:33:27,27.98,-114.06,75.31,28,0,16.91,clear sky,0.0,0
320,Puertollano,ES,2020-04-15 22:33:27,38.69,-4.11,53.01,90,12,3.36,few clouds,0.0,0
321,Cabedelo,BR,2020-04-15 22:29:34,-6.98,-34.83,78.8,94,68,3.36,light rain,0.0,0
322,Pitanga,BR,2020-04-15 22:29:35,-24.76,-51.76,56.12,48,0,4.32,clear sky,0.0,0
323,Hvolsvollur,IS,2020-04-15 22:30:22,63.75,-20.22,36.0,84,73,3.0,broken clouds,0.0,0
324,Moyale,KE,2020-04-15 22:33:28,3.52,39.06,69.37,63,75,2.8,light rain,0.0,0
325,Saint-Joseph,RE,2020-04-15 22:33:28,-21.37,55.62,75.2,64,75,8.05,broken clouds,0.0,0
326,Ilulissat,GL,2020-04-15 22:33:29,69.22,-51.1,28.4,58,100,3.36,overcast clouds,0.0,0
327,Gigmoto,PH,2020-04-15 22:33:29,13.78,124.39,81.37,81,63,10.18,light rain,0.0,0
328,Wanxian,CN,2020-04-15 22:33:29,30.8,108.39,71.64,61,61,2.66,broken clouds,0.0,0
329,Sisimiut,GL,2020-04-15 22:33:29,66.94,-53.67,27.59,95,73,18.99,light snow,0.0,0
330,Amahai,ID,2020-04-15 22:33:29,-3.33,128.92,82.96,66,64,3.18,broken clouds,0.0,0
331,Taltal,CL,2020-04-15 22:33:30,-25.4,-70.48,62.56,74,100,2.53,overcast clouds,0.0,0
332,Kargasok,RU,2020-04-15 22:33:30,59.06,80.86,32.63,94,75,8.28,broken clouds,0.0,0
333,Lompoc,US,2020-04-15 22:33:02,34.64,-120.46,78.01,63,1,13.87,clear sky,0.0,0
334,Rawson,AR,2020-04-15 22:29:16,-43.3,-65.1,69.1,39,99,8.97,overcast clouds,0.0,0
335,Kumi,KR,2020-04-15 22:33:30,36.11,128.34,48.2,76,1,1.12,clear sky,0.0,0
336,Drogenbos,BE,2020-04-15 22:29:38,50.79,4.31,55.0,46,18,3.36,few clouds,0.0,0
337,Honiara,SB,2020-04-15 22:30:15,-9.43,159.95,82.4,83,90,5.82,overcast clouds,0.0,0
338,Carberry,CA,2020-04-15 22:29:38,49.87,-99.36,37.4,29,40,14.99,scattered clouds,0.0,0
339,Terney,RU,2020-04-15 22:33:31,45.05,136.61,47.19,52,0,1.57,clear sky,0.0,0
340,Zyryanka,RU,2020-04-15 22:33:32,65.75,150.85,4.08,93,100,16.6,light snow,0.0,0
341,Maningrida,AU,2020-04-15 22:33:32,-12.07,134.27,80.67,78,93,10.07,overcast clouds,0.0,0
342,Sainte-Suzanne,RE,2020-04-15 22:33:32,-20.91,55.61,75.2,60,2,16.11,clear sky,0.0,0
343,Henderson,US,2020-04-15 22:32:50,36.04,-114.98,79.0,9,1,5.82,clear sky,0.0,0
344,Cairns,AU,2020-04-15 22:33:32,-16.92,145.77,75.99,94,90,11.41,light intensity shower rain,2.29,0
345,Raubling,DE,2020-04-15 22:28:39,47.79,12.11,44.01,75,10,2.24,clear sky,0.0,0
346,Hamilton,US,2020-04-15 22:29:40,39.18,-84.53,46.99,61,75,11.41,light rain,0.76,0
347,Flin Flon,CA,2020-04-15 22:33:33,54.77,-101.86,32.0,91,75,14.99,broken clouds,0.0,0
348,Cabo San Lucas,MX,2020-04-15 22:33:33,22.89,-109.91,82.0,41,5,9.17,clear sky,0.0,0
349,Rovaniemi,FI,2020-04-15 22:29:06,66.5,25.72,28.4,92,100,5.82,light snow,0.0,0
350,Kamenka,RU,2020-04-15 22:33:34,51.32,42.77,34.0,86,79,4.0,broken clouds,0.0,0
351,Kodiak,US,2020-04-15 22:33:34,57.79,-152.41,48.2,81,75,5.82,broken clouds,0.0,0
352,Narsaq,GL,2020-04-15 22:33:34,60.92,-46.05,35.6,80,100,5.82,light rain,0.0,0
353,Sokolo,ML,2020-04-15 22:33:34,14.73,-6.12,80.78,45,90,10.22,overcast clouds,0.0,0
354,Polunochnoye,RU,2020-04-15 22:33:34,60.87,60.42,32.92,90,98,6.96,overcast clouds,0.0,0
355,Moindou,NC,2020-04-15 22:33:35,-21.69,165.68,80.6,65,8,3.36,clear sky,0.0,0
356,Caravelas,BR,2020-04-15 22:33:35,-17.71,-39.25,78.28,85,68,7.52,light rain,0.0,0
357,Roebourne,AU,2020-04-15 22:30:44,-20.78,117.13,84.9,55,85,9.42,overcast clouds,0.0,0
358,Rundu,NA,2020-04-15 22:33:35,-17.93,19.77,71.6,73,27,3.36,scattered clouds,0.0,0
359,Nikolskoye,RU,2020-04-15 22:33:35,59.7,30.79,30.2,92,20,4.47,few clouds,0.0,0
360,Qena,EG,2020-04-15 22:33:36,26.16,32.72,77.0,33,0,5.82,clear sky,0.0,0
361,Sosnogorsk,RU,2020-04-15 22:33:36,63.6,53.88,32.23,92,69,11.56,broken clouds,0.0,0
362,Los Chiles,CR,2020-04-15 22:33:36,11.03,-84.72,73.99,83,86,18.99,overcast clouds,0.0,0
363,Ucluelet,CA,2020-04-15 22:33:36,48.93,-125.55,57.0,76,20,6.93,fog,0.0,0
364,Lichinga,MZ,2020-04-15 22:29:06,-13.31,35.24,64.4,93,20,9.17,few clouds,0.0,0
365,Sambava,MG,2020-04-15 22:33:37,-14.27,50.17,74.55,85,11,8.3,light rain,0.0,0
366,Qaqortoq,GL,2020-04-15 22:33:37,60.72,-46.03,35.6,80,100,5.82,light rain,0.0,0
367,Atar,MR,2020-04-15 22:33:37,20.52,-13.05,70.57,21,0,2.57,clear sky,0.0,0
368,San Patricio,MX,2020-04-15 22:29:44,19.22,-104.7,80.6,78,20,11.41,few clouds,0.0,0
369,Murchison,NZ,2020-04-15 22:29:44,-41.8,172.33,50.5,77,99,1.39,light rain,0.0,0
370,Berdigestyakh,RU,2020-04-15 22:33:04,62.1,126.7,15.67,87,36,8.79,scattered clouds,0.0,0
371,Batagay,RU,2020-04-15 22:33:38,67.63,134.63,1.44,86,100,10.09,light snow,0.0,0
372,Lucapa,AO,2020-04-15 22:29:45,-8.42,20.74,70.93,67,100,0.29,light rain,0.0,0
373,Mapastepec,MX,2020-04-15 22:29:45,15.43,-92.9,92.77,46,23,9.62,light rain,0.0,0
374,Poum,NC,2020-04-15 22:33:39,-20.23,164.02,79.02,76,16,13.38,few clouds,0.0,0
375,Vaitape,PF,2020-04-15 22:33:39,-16.52,-151.75,84.36,66,52,8.84,broken clouds,0.0,0
376,Itabira,BR,2020-04-15 22:33:00,-19.62,-43.23,66.2,93,90,4.7,thunderstorm with light rain,0.0,0
377,Barcelos,PT,2020-04-15 22:33:39,41.54,-8.62,57.2,87,75,12.75,shower rain,0.0,0
378,Korla,CN,2020-04-15 22:33:39,41.76,86.15,61.48,29,100,9.64,overcast clouds,0.0,0
379,Ridgecrest,US,2020-04-15 22:33:40,35.62,-117.67,78.8,14,1,12.75,clear sky,0.0,0
380,Shawnee,US,2020-04-15 22:33:40,39.05,-95.77,57.99,26,75,5.82,broken clouds,0.0,0
381,Glyadyanskoye,RU,2020-04-15 22:33:40,54.91,65.09,41.56,80,51,10.76,broken clouds,0.0,0
382,Ust-Ishim,RU,2020-04-15 22:33:40,57.69,71.17,32.32,95,20,4.9,few clouds,0.0,0
383,Klaksvik,FO,2020-04-15 22:33:04,62.23,-6.59,41.0,65,38,14.99,scattered clouds,0.0,0
384,Kupang,ID,2020-04-15 22:33:41,-10.17,123.58,78.8,83,20,10.29,few clouds,0.0,0
385,Dauphin,CA,2020-04-15 22:33:41,51.15,-100.05,30.4,79,96,9.48,light snow,0.0,0
386,Natal,BR,2020-04-15 22:29:48,-5.79,-35.21,78.8,88,40,4.7,scattered clouds,0.0,0
387,Itupiranga,BR,2020-04-15 22:33:41,-5.13,-49.33,77.0,100,75,6.93,light rain,0.0,0
388,Alice Springs,AU,2020-04-15 22:33:12,-23.7,133.88,62.6,33,4,3.36,clear sky,0.0,0
389,Arecibo,PR,2020-04-15 22:33:42,18.47,-66.72,82.4,74,40,16.11,scattered clouds,0.0,0
390,Coquimbo,CL,2020-04-15 22:33:42,-29.95,-71.34,62.6,67,100,9.17,overcast clouds,0.0,0
391,Pauini,BR,2020-04-15 22:33:42,-7.71,-66.98,73.2,92,81,1.45,light rain,0.0,0
392,Kumluca,TR,2020-04-15 22:33:42,36.37,30.29,57.18,65,2,7.94,clear sky,0.0,0
393,Sakakah,SA,2020-04-15 22:29:49,29.97,40.21,60.8,67,15,6.93,few clouds,0.0,0
394,Kalmunai,LK,2020-04-15 22:33:43,7.42,81.82,80.98,74,81,1.3,broken clouds,0.0,0
395,Berlevag,NO,2020-04-15 22:33:43,70.86,29.09,32.85,91,15,15.99,few clouds,0.0,0
396,Solnechnyy,RU,2020-04-15 22:33:43,50.72,136.63,45.72,47,0,2.8,clear sky,0.0,0
397,Bandarbeyla,SO,2020-04-15 22:33:43,9.49,50.81,81.43,76,9,6.69,light rain,0.0,0
398,San Juan,AR,2020-04-15 22:29:50,-31.54,-68.54,78.57,20,94,8.1,overcast clouds,0.0,0
399,Goderich,CA,2020-04-15 22:29:51,43.75,-81.72,35.01,61,39,15.99,scattered clouds,0.0,0
400,Maceio,BR,2020-04-15 22:29:51,-9.67,-35.74,78.8,88,16,5.82,few clouds,0.0,0
401,Nicoya,CR,2020-04-15 22:33:44,10.15,-85.45,91.4,49,75,12.75,broken clouds,0.0,0
402,Ostrovnoy,RU,2020-04-15 22:33:44,68.05,39.51,34.38,95,100,5.66,light rain,0.0,0
403,Krasnogorskoye,RU,2020-04-15 22:29:51,52.3,86.2,39.96,71,67,5.77,broken clouds,0.0,0
404,Hami,CN,2020-04-15 22:33:45,42.8,93.45,63.18,26,100,18.28,overcast clouds,0.0,0
405,Bafq,IR,2020-04-15 22:29:27,31.61,55.41,64.9,31,18,5.17,few clouds,0.0,0
406,Havre-Saint-Pierre,CA,2020-04-15 22:33:31,50.23,-63.6,33.8,64,90,12.75,overcast clouds,0.0,0
407,Jinchang,CN,2020-04-15 22:33:45,38.5,102.17,47.75,25,100,7.45,overcast clouds,0.0,0
408,Broken Arrow,US,2020-04-15 22:33:46,36.05,-95.79,64.4,25,1,9.17,clear sky,0.0,0
409,Aksu,CN,2020-04-15 22:33:46,41.12,80.26,63.16,23,100,4.83,overcast clouds,0.0,0
410,Ipanguacu,BR,2020-04-15 22:29:53,-5.5,-36.85,79.05,75,73,7.45,light rain,0.0,0
411,Tema,GH,2020-04-15 22:33:46,5.67,-0.02,86.0,74,20,8.05,few clouds,0.0,0
412,Marrakesh,MA,2020-04-15 22:29:17,31.63,-8.01,62.6,63,97,4.7,overcast clouds,0.0,0
413,San Ignacio,BZ,2020-04-15 22:29:22,17.16,-89.07,98.6,44,40,4.7,scattered clouds,0.0,0
414,Kieta,PG,2020-04-15 22:33:47,-6.22,155.63,86.67,61,97,1.48,light rain,0.0,0
415,Zumarraga,PH,2020-04-15 22:33:47,11.64,124.84,83.93,67,76,5.57,broken clouds,0.0,0
416,Tabas,IR,2020-04-15 22:33:48,33.6,56.92,63.12,34,3,4.29,clear sky,0.0,0
417,Mayo,US,2020-04-15 22:33:48,38.89,-76.51,54.0,40,1,10.29,clear sky,0.0,0
418,Padang,ID,2020-04-15 22:33:48,-0.95,100.35,78.8,77,64,4.9,light rain,0.0,0
419,San Quintin,MX,2020-04-15 22:33:48,30.48,-115.95,68.27,51,0,12.01,clear sky,0.0,0
420,Kuzedeyevo,RU,2020-04-15 22:33:49,53.33,87.2,38.7,77,63,5.66,broken clouds,0.0,0
421,Nanortalik,GL,2020-04-15 22:29:56,60.14,-45.24,36.25,93,100,11.99,light rain,0.0,0
422,Yenagoa,NG,2020-04-15 22:33:49,4.92,6.26,79.11,91,98,4.38,overcast clouds,0.0,0
423,Buraydah,SA,2020-04-15 22:29:57,26.33,43.98,62.6,67,0,6.93,clear sky,0.0,0
424,Lorengau,PG,2020-04-15 22:33:50,-2.02,147.27,84.54,68,79,1.72,broken clouds,0.0,0
425,High Rock,BS,2020-04-15 22:33:50,26.62,-78.28,84.2,79,75,17.22,broken clouds,0.0,0
426,Abay,KZ,2020-04-15 22:33:50,49.63,72.85,28.4,86,0,2.24,clear sky,0.0,0
427,Lingao,CN,2020-04-15 22:33:51,19.91,109.69,71.56,83,100,8.39,overcast clouds,0.0,0
428,Turukhansk,RU,2020-04-15 22:33:07,65.82,87.98,28.56,94,59,12.48,broken clouds,0.0,0
429,Altamira,BR,2020-04-15 22:32:57,-3.2,-52.21,70.86,91,88,2.04,overcast clouds,0.0,0
430,Hargeysa,SO,2020-04-15 22:33:51,9.56,44.06,73.02,50,100,8.66,light rain,0.0,0
431,Nyrob,RU,2020-04-15 22:33:05,60.73,56.72,37.42,92,100,10.69,light rain,0.0,0
432,Xichang,CN,2020-04-15 22:33:52,27.9,102.26,62.56,33,19,2.84,few clouds,0.0,0
433,Olga,RU,2020-04-15 22:32:04,43.74,135.29,44.38,58,0,5.08,clear sky,0.0,0
434,Tilichiki,RU,2020-04-15 22:33:52,60.47,166.1,21.74,95,26,5.57,scattered clouds,0.0,0
435,Gbarnga,LR,2020-04-15 22:33:53,7.0,-9.47,74.66,89,94,1.48,overcast clouds,0.0,0
436,Tutoia,BR,2020-04-15 22:33:53,-2.76,-42.27,79.41,81,94,3.22,light rain,0.0,0
437,Skibotn,NO,2020-04-15 22:33:53,69.39,20.27,33.8,86,75,14.99,light shower snow,0.0,0
438,Yazman,PK,2020-04-15 22:30:00,29.12,71.74,84.04,24,19,3.91,few clouds,0.0,0
439,Kirensk,RU,2020-04-15 22:33:53,57.79,108.11,39.88,73,5,3.44,clear sky,0.0,0
440,Askiz,RU,2020-04-15 22:33:54,53.13,90.53,42.75,59,93,10.27,overcast clouds,0.0,0
441,North Bend,US,2020-04-15 22:33:54,43.41,-124.22,62.01,76,20,13.87,few clouds,0.0,0
442,Isla Mujeres,MX,2020-04-15 22:33:54,21.23,-86.73,87.8,62,40,25.28,scattered clouds,0.0,0
443,George Town,MY,2020-04-15 22:32:38,5.41,100.34,78.8,94,40,2.24,scattered clouds,0.0,0
444,Marang,MY,2020-04-15 22:33:55,5.21,103.21,78.8,94,40,4.7,scattered clouds,0.0,0
445,Pingshan,CN,2020-04-15 22:33:55,22.99,114.71,69.01,77,97,2.55,overcast clouds,0.0,0
446,Vinh,VN,2020-04-15 22:33:55,18.67,105.67,72.07,90,98,1.61,overcast clouds,0.0,0
447,Nabire,ID,2020-04-15 22:33:55,-3.37,135.48,77.79,85,100,2.57,overcast clouds,0.0,0
448,Lang Son,VN,2020-04-15 22:33:55,21.83,106.73,68.83,81,100,2.15,overcast clouds,0.0,0
449,Ranong,TH,2020-04-15 22:33:56,9.97,98.63,80.46,78,96,3.09,overcast clouds,0.0,0
450,Ellensburg,US,2020-04-15 22:33:47,47.0,-120.55,63.0,44,90,16.11,overcast clouds,0.0,0
451,Porosozero,RU,2020-04-15 22:33:56,62.72,32.73,27.01,96,0,2.13,clear sky,0.0,0
452,Puqi,CN,2020-04-15 22:33:56,29.72,113.88,70.81,59,0,7.25,clear sky,0.0,0
453,Kununurra,AU,2020-04-15 22:33:56,-15.77,128.73,69.8,88,100,2.24,overcast clouds,0.0,0
454,Saint-Augustin,CA,2020-04-15 22:30:05,51.23,-58.65,28.58,92,13,9.69,few clouds,0.0,0
455,Tarakan,ID,2020-04-15 22:33:57,3.3,117.63,79.41,77,59,3.71,broken clouds,0.0,0
456,Saint Anthony,US,2020-04-15 22:31:15,45.02,-93.22,36.0,31,75,126.61,broken clouds,0.0,0
457,Santa Cruz Del Sur,CU,2020-04-15 22:33:57,20.71,-78.0,80.74,76,8,9.01,clear sky,0.0,0
458,Yar-Sale,RU,2020-04-15 22:30:06,66.83,70.83,11.17,89,1,11.03,clear sky,0.0,0
459,Mercedes,AR,2020-04-15 22:30:06,-34.65,-59.43,61.0,83,0,4.76,clear sky,0.0,0
460,Vila Franca Do Campo,PT,2020-04-15 22:30:06,37.72,-25.43,53.6,76,20,20.8,few clouds,0.0,0
461,Sebring,US,2020-04-15 22:33:58,27.5,-81.44,89.6,52,75,19.46,broken clouds,0.0,0
462,Gobabis,NA,2020-04-15 22:30:06,-22.45,18.97,59.0,58,21,32.21,few clouds,0.0,0
463,Saint-Pierre,RE,2020-04-15 22:33:58,-21.34,55.48,75.2,64,75,8.05,broken clouds,0.0,0
464,Chingirlau,KZ,2020-04-15 22:33:59,51.09,54.08,50.47,44,100,19.19,overcast clouds,0.0,0
465,Gat,IL,2020-04-15 22:33:59,31.61,34.76,64.0,77,21,2.24,few clouds,0.0,0
466,Kajaani,FI,2020-04-15 22:33:59,64.23,27.73,30.2,92,90,4.7,light snow,0.0,0
467,Abu Zabad,SD,2020-04-15 22:33:59,12.35,29.25,70.38,14,15,13.82,few clouds,0.0,0
468,Urumqi,CN,2020-04-15 22:33:59,43.8,87.6,57.2,62,100,6.71,light rain,0.0,0
469,Flinders,AU,2020-04-15 22:33:59,-34.58,150.86,73.0,46,100,14.99,overcast clouds,0.0,0
470,Sampit,ID,2020-04-15 22:30:08,-2.53,112.95,77.16,96,93,1.39,moderate rain,0.0,0
471,Vanino,RU,2020-04-15 22:30:08,49.09,140.25,37.94,71,0,2.33,clear sky,0.0,0
472,San Pedro De Uraba,CO,2020-04-15 22:34:00,8.28,-76.38,86.0,70,20,13.87,few clouds,0.0,0
473,Tura,IN,2020-04-15 22:33:47,25.52,90.22,65.61,85,77,3.22,light rain,0.0,0
474,Acapulco,MX,2020-04-15 22:30:09,16.86,-99.89,82.4,74,75,8.05,broken clouds,0.0,0
475,Laguna,US,2020-04-15 22:33:24,38.42,-121.42,84.99,29,1,6.93,clear sky,0.0,0
476,San Andres,CO,2020-04-15 22:33:31,12.58,-81.7,86.0,66,20,12.75,few clouds,0.0,0
477,Waingapu,ID,2020-04-15 22:30:10,-9.66,120.26,81.93,80,99,9.75,overcast clouds,0.0,0
478,Campanario,ES,2020-04-15 22:30:10,38.86,-5.62,51.6,82,49,7.02,scattered clouds,0.0,0
479,Banda Aceh,ID,2020-04-15 22:34:02,5.56,95.32,80.01,79,48,3.06,scattered clouds,0.0,0
480,Krasnoye,UA,2020-04-15 22:34:02,49.91,24.61,46.4,52,90,4.47,overcast clouds,0.0,0
481,Zykovo,RU,2020-04-15 22:30:10,55.95,93.15,46.4,65,89,20.13,light rain,0.0,0
482,Angoche,MZ,2020-04-15 22:34:02,-16.23,39.91,77.11,87,0,4.23,light rain,0.0,0
483,Louis Trichardt,ZA,2020-04-15 22:34:02,-23.04,29.9,63.0,69,14,3.24,few clouds,0.0,0
484,Syasstroy,RU,2020-04-15 22:34:03,60.14,32.57,31.55,97,0,5.46,clear sky,0.0,0
485,Soyo,AO,2020-04-15 22:34:03,-6.13,12.37,80.42,85,100,8.66,light rain,0.0,0
486,Anloga,GH,2020-04-15 22:34:03,5.79,0.9,86.0,79,20,12.75,few clouds,0.0,0
487,Russell,US,2020-04-15 22:34:03,32.35,-85.2,66.99,25,1,11.41,clear sky,0.0,0
488,Roma,US,2020-04-15 22:29:15,43.21,-75.46,42.8,41,90,13.87,overcast clouds,0.0,0
489,Kaitangata,NZ,2020-04-15 22:34:03,-46.28,169.85,54.0,63,44,11.01,light rain,0.0,0
490,Tanga,TZ,2020-04-15 22:34:04,-5.07,39.1,77.97,84,100,10.49,light rain,0.0,0
491,Omboue,GA,2020-04-15 22:34:04,-1.57,9.26,80.58,88,100,5.79,light rain,0.0,0
492,Samfya,ZM,2020-04-15 22:30:13,-11.36,29.56,65.26,68,96,4.14,light rain,0.0,0
493,Sale,MA,2020-04-15 22:34:04,34.04,-6.82,61.0,93,54,5.82,broken clouds,0.0,0
494,Ponca City,US,2020-04-15 22:34:04,36.71,-97.09,64.4,23,75,6.93,broken clouds,0.0,0
495,Kaseda,JP,2020-04-15 22:34:05,31.42,130.32,51.8,81,40,5.82,scattered clouds,0.0,0
496,Yichun,CN,2020-04-15 22:34:05,47.7,128.9,50.07,36,0,3.78,clear sky,0.0,0
497,Lazaro Cardenas,MX,2020-04-15 22:30:00,17.96,-102.2,86.09,41,26,9.19,scattered clouds,0.0,0
498,Dzerzhinskoye,RU,2020-04-15 22:34:05,56.83,95.23,46.08,80,86,7.7,overcast clouds,0.0,0
499,Qasigiannguit,GL,2020-04-15 22:34:05,68.82,-51.19,28.4,58,99,3.36,light snow,0.0,0
500,Blackwater,AU,2020-04-15 22:29:33,-23.58,148.88,64.47,79,0,6.6,clear sky,0.0,0
501,Tres Lagoas,BR,2020-04-15 22:30:15,-20.75,-51.68,60.21,62,18,5.41,few clouds,0.0,0
502,Suba,PH,2020-04-15 22:30:15,10.84,121.01,83.34,73,13,10.07,few clouds,0.0,0
503,Tokur,RU,2020-04-15 22:34:06,53.13,132.9,37.85,53,0,1.54,clear sky,0.0,0
504,Zaysan,KZ,2020-04-15 22:34:07,47.47,84.87,43.63,63,100,3.98,overcast clouds,0.0,0
505,Chara,RU,2020-04-15 22:30:16,56.91,118.26,32.76,62,0,1.34,clear sky,0.0,0
506,Dalvik,IS,2020-04-15 22:34:07,65.97,-18.53,33.8,74,75,9.17,broken clouds,0.0,0
507,Toksovo,RU,2020-04-15 22:34:07,60.15,30.52,30.99,92,20,4.47,few clouds,0.0,0
508,Pacaembu,BR,2020-04-15 22:34:08,-21.56,-51.26,58.69,59,0,5.93,clear sky,0.0,0
509,Nokaneng,BW,2020-04-15 22:34:08,-19.67,22.27,73.8,31,19,2.71,few clouds,0.0,0
510,Thinadhoo,MV,2020-04-15 22:31:11,0.53,72.93,84.7,69,95,6.49,light rain,0.0,0
511,Los Algarrobos,PA,2020-04-15 22:30:17,8.5,-82.43,87.8,66,40,9.17,moderate rain,0.0,0
512,Quatre Cocos,MU,2020-04-15 22:30:17,-20.21,57.76,77.0,83,40,12.75,scattered clouds,0.0,0
513,Mizan Teferi,ET,2020-04-15 22:30:18,6.98,35.58,63.61,64,99,2.93,light rain,0.0,0
514,Lavrentiya,RU,2020-04-15 22:30:18,65.58,-171.0,29.86,94,37,5.06,scattered clouds,0.0,0
515,Straubing,DE,2020-04-15 22:30:18,48.88,12.57,45.0,64,1,2.71,clear sky,0.0,0
516,Vallenar,CL,2020-04-15 22:30:19,-28.57,-70.76,60.69,51,100,0.43,overcast clouds,0.0,0
517,Grand-Santi,GF,2020-04-15 22:30:19,4.25,-54.38,76.32,74,26,2.48,scattered clouds,0.0,0
518,Muriwai Beach,NZ,2020-04-15 22:30:19,-36.82,174.45,66.0,72,52,18.34,broken clouds,0.0,0
519,Bonthe,SL,2020-04-15 22:30:19,7.53,-12.51,81.61,81,68,3.0,light rain,0.0,0
520,Fukue,JP,2020-04-15 22:30:20,32.69,128.84,59.34,67,40,11.54,scattered clouds,0.0,0
521,Sirjan,IR,2020-04-15 22:30:20,29.45,55.68,52.93,45,57,4.38,broken clouds,0.0,0
522,Khani,GE,2020-04-15 22:30:20,41.96,42.96,51.8,100,96,3.36,light rain,0.0,0
523,Khasan,RU,2020-04-15 22:30:20,42.43,130.64,44.96,65,17,7.78,few clouds,0.0,0
524,Taman,RU,2020-04-15 22:30:20,45.21,36.72,32.0,63,40,8.95,scattered clouds,0.0,0
525,Beloha,MG,2020-04-15 22:30:21,-25.17,45.05,75.25,60,69,6.87,broken clouds,0.0,0
526,Paka,MY,2020-04-15 22:30:21,4.64,103.44,75.2,94,56,1.12,broken clouds,0.0,0
527,Novikovo,RU,2020-04-15 22:30:21,51.15,37.89,37.54,75,100,12.57,overcast clouds,0.0,0
528,Sawtell,AU,2020-04-15 22:30:21,-30.38,153.1,69.8,68,25,5.82,scattered clouds,0.0,0
529,Amnat Charoen,TH,2020-04-15 22:30:22,15.86,104.63,80.01,76,63,9.55,broken clouds,0.0,0
530,Kharp,RU,2020-04-15 22:30:22,66.8,65.81,23.85,95,100,9.33,overcast clouds,0.0,0
531,Yerofey Pavlovich,RU,2020-04-15 22:30:22,53.97,121.97,44.15,48,0,1.12,clear sky,0.0,0
532,Paamiut,GL,2020-04-15 22:30:23,61.99,-49.67,31.69,95,100,11.74,light snow,0.0,0
533,Voznesenskaya,RU,2020-04-15 22:30:23,44.55,41.03,37.58,78,100,5.82,light rain,0.0,0
534,Wakkanai,JP,2020-04-15 22:30:23,45.41,141.67,35.64,79,96,16.42,overcast clouds,0.0,0
535,Dolinsk,RU,2020-04-15 22:30:23,47.35,142.8,30.2,92,68,1.03,broken clouds,0.0,0
536,Udachnyy,RU,2020-04-15 22:26:48,66.42,112.4,5.0,71,17,6.71,few clouds,0.0,0
537,Otjiwarongo,NA,2020-04-15 22:30:24,-20.46,16.65,62.6,39,1,2.95,clear sky,0.0,0
538,Burgeo,CA,2020-04-15 22:30:24,47.62,-57.62,33.76,94,100,6.04,light snow,0.0,0
539,Magistralnyy,RU,2020-04-15 22:30:24,56.17,107.45,40.6,59,0,2.77,clear sky,0.0,0
540,Menongue,AO,2020-04-15 22:30:24,-14.66,17.69,63.14,53,71,1.25,broken clouds,0.0,0
541,Mount Isa,AU,2020-04-15 22:30:25,-20.73,139.5,78.8,34,40,6.93,scattered clouds,0.0,0
542,Snezhnogorsk,RU,2020-04-15 22:30:25,69.19,33.25,30.2,74,98,6.71,overcast clouds,0.0,0
543,Ingham,US,2020-04-15 22:30:25,42.6,-84.38,37.4,64,90,10.29,overcast clouds,0.0,0
544,Codajas,BR,2020-04-15 22:30:26,-3.84,-62.06,75.47,93,41,2.55,light rain,0.0,0
545,Sungaipenuh,ID,2020-04-15 22:30:26,-2.08,101.38,67.08,70,69,2.06,light rain,0.0,0
546,Carlsbad,US,2020-04-15 22:30:26,33.16,-117.35,81.0,53,1,11.41,haze,0.0,0
547,Sao Filipe,CV,2020-04-15 22:30:27,14.9,-24.5,72.5,76,61,13.33,broken clouds,0.0,0
548,Baykit,RU,2020-04-15 22:30:27,61.67,96.37,37.33,84,78,2.08,broken clouds,0.0,0
549,Kaiyuan,CN,2020-04-15 22:30:27,23.7,103.3,65.41,51,15,4.09,few clouds,0.0,0
550,Maputo,MZ,2020-04-15 22:30:27,-25.97,32.59,75.2,88,20,3.36,few clouds,0.0,0
551,Sharjah,AE,2020-04-15 22:29:52,25.36,55.4,71.6,88,100,3.36,light rain,0.0,0
552,Shepsi,RU,2020-04-15 22:30:28,44.04,39.15,49.3,78,100,4.65,light rain,0.0,0
553,Itoman,JP,2020-04-15 22:30:28,26.12,127.67,68.0,68,20,9.17,few clouds,0.0,0
554,Charagua,BO,2020-04-15 22:30:28,-19.8,-63.22,63.52,41,46,3.2,scattered clouds,0.0,0
555,Vila,PT,2020-04-15 22:30:28,42.03,-8.16,57.0,93,40,10.29,scattered clouds,0.0,0
556,Dasoguz,TM,2020-04-15 22:30:28,41.84,59.97,44.6,56,0,9.17,clear sky,0.0,0
557,Westport,US,2020-04-15 22:30:29,41.14,-73.36,54.0,21,1,11.41,clear sky,0.0,0
558,Oxapampa,PE,2020-04-15 22:30:29,-10.58,-75.4,61.14,53,69,0.51,light rain,0.0,0
559,Sayyan,YE,2020-04-15 22:30:29,15.17,44.32,59.32,38,79,2.89,light rain,0.0,0
